{"locationList":[{"locationDetails":{"cityId":"alv","cityName":"Andorra la Vella","countryId":"ad","countryName":"Andorra","regionId":"europe","regionName":"Europe","stateId":null,"stateName":null,"latitude":42.5063174,"longitude":1.5218355},"locationType":"VIRTUAL","virtualLocationCountryId":null,"virtualLocationCountryName":null,"p2pAllowed":false,"streaming":false,"gatewaysCount":2,"ipsCount":6},{"locationDetails":{"cityId":"dxb","cityName":"Dubai","countryId":"ae","countryName":"United Arab Emirates","regionId":"middle_east","regionName":"Middle East","stateId":null,"stateName":null,"latitude":25.2048493,"longitude":55.2707828},"locationType":"VIRTUAL","virtualLocationCountryId":null,"virtualLocationCountryName":null,"p2pAllowed":false,"streaming":false,"gatewaysCount":2,"ipsCount":6},{"locationDetails":{"cityId":"kbl","cityName":"Kabul","countryId":"af","countryName":"Afghanistan","regionId":"asia_pacific","regionName":"Asia Pacific","stateId":null,"stateName":null,"latitude":34.5553494,"longitude":69.207486},"locationType":"VIRTUAL","virtualLocationCountryId":null,"virtualLocationCountryName":null,"p2pAllowed":false,"streaming":false,"gatewaysCount":2,"ipsCount":6},{"locationDetails":{"cityId":"sjn","cityName":"Saint John's","countryId":"ag","countryName":"Antigua and Barbuda","regionId":"north_america","regionName":"North America","stateId":null,"stateName":null,"latitude":17.1255097,"longitude":-61.8621108},"locationType":"VIRTUAL","virtualLocationCountryId":null,"virtualLocationCountryName":null,"p2pAllowed":false,"streaming":false,"gatewaysCount":2,"ipsCount":6},{"locationDetails":{"cityId":"val","cityName":"The Valley","countryId":"ai","countryName":"Anguilla","regionId":"north_america","regionName":"North America","stateId":null,"stateName":null,"latitude":18.2148129,"longitude":-63.0574406},"locationType":"VIRTUAL","virtualLocationCountryId":null,"virtualLocationCountryName":null,"p2pAllowed":false,"streaming":false,"gatewaysCount":2,"ipsCount":6},{"locationDetails":{"cityId":"tia","cityName":"Tirana","countryId":"al","countryName":"Albania","regionId":"europe","regionName":"Europe","stateId":null,"stateName":null,"latitude":41.3275459,"longitude":19.8186982},"locationType":"VIRTUAL","virtualLocationCountryId":null,"virtualLocationCountryName":null,"p2pAllowed":false,"streaming":false,"gatewaysCount":2,"ipsCount":6},{"locationDetails":{"cityId":"evn","cityName":"Tsaghkadzor","countryId":"am","countryName":"Armenia","regionId":"asia_pacific","regionName":"Asia Pacific","stateId":null,"stateName":null,"latitude":40.5317434,"longitude":44.7159759},"locationType":"VIRTUAL","virtualLocationCountryId":null,"virtualLocationCountryName":null,"p2pAllowed":false,"streaming":false,"gatewaysCount":2,"ipsCount":6},{"locationDetails":{"cityId":"lad","cityName":"Luanda","countryId":"ao","countryName":"Angola","regionId":"africa","regionName":"Africa","stateId":null,"stateName":null,"latitude":-8.8399876,"longitude":13.2894368},"locationType":"VIRTUAL","virtualLocationCountryId":null,"virtualLocationCountryName":null,"p2pAllowed":false,"streaming":false,"gatewaysCount":2,"ipsCount":6},{"locationDetails":{"cityId":"bue","cityName":"Buenos Aires","countryId":"ar","countryName":"Argentina","regionId":"south_america","regionName":"South America","stateId":null,"stateName":null,"latitude":-34.6036844,"longitude":-58.3815591},"locationType":"VIRTUAL","virtualLocationCountryId":null,"virtualLocationCountryName":null,"p2pAllowed":false,"streaming":false,"gatewaysCount":2,"ipsCount":6},{"locationDetails":{"cityId":"ppg","cityName":"Pago Pago","countryId":"as","countryName":"American Samoa","regionId":"asia_pacific","regionName":"Asia Pacific","stateId":null,"stateName":null,"latitude":-14.2756319,"longitude":-170.7020359},"locationType":"VIRTUAL","virtualLocationCountryId":null,"virtualLocationCountryName":null,"p2pAllowed":false,"streaming":false,"gatewaysCount":2,"ipsCount":6},{"locationDetails":{"cityId":"vie","cityName":"Vienna","countryId":"at","countryName":"Austria","regionId":"europe","regionName":"Europe","stateId":null,"stateName":null,"latitude":48.2081743,"longitude":16.3738189},"locationType":"PHYSICAL","virtualLocationCountryId":null,"virtualLocationCountryName":null,"p2pAllowed":false,"streaming":false,"gatewaysCount":13,"ipsCount":143},{"locationDetails":{"cityId":"mel","cityName":"Melbourne","countryId":"au","countryName":"Australia","regionId":"asia_pacific","regionName":"Asia Pacific","stateId":null,"stateName":null,"latitude":-37.8136276,"longitude":144.9630576},"locationType":"PHYSICAL","virtualLocationCountryId":null,"virtualLocationCountryName":null,"p2pAllowed":false,"streaming":false,"gatewaysCount":10,"ipsCount":110},{"locationDetails":{"cityId":"per","cityName":"Perth","countryId":"au","countryName":"Australia","regionId":"asia_pacific","regionName":"Asia Pacific","stateId":null,"stateName":null,"latitude":-31.9567798,"longitude":115.869334},"locationType":"PHYSICAL","virtualLocationCountryId":null,"virtualLocationCountryName":null,"p2pAllowed":false,"streaming":false,"gatewaysCount":3,"ipsCount":33},{"locationDetails":{"cityId":"syd","cityName":"Sydney","countryId":"au","countryName":"Australia","regionId":"asia_pacific","regionName":"Asia Pacific","stateId":null,"stateName":null,"latitude":-33.8688197,"longitude":151.2092955},"locationType":"PHYSICAL","virtualLocationCountryId":null,"virtualLocationCountryName":null,"p2pAllowed":false,"streaming":false,"gatewaysCount":2,"ipsCount":23},{"locationDetails":{"cityId":"pab","cityName":"Palm Beach","countryId":"aw","countryName":"Aruba","regionId":"north_america","regionName":"North America","stateId":null,"stateName":null,"latitude":12.5690606,"longitude":-70.0413821},"locationType":"VIRTUAL","virtualLocationCountryId":null,"virtualLocationCountryName":null,"p2pAllowed":false,"streaming":false,"gatewaysCount":2,"ipsCount":6},{"locationDetails":{"cityId":"mhq","cityName":"Mariehamn","countryId":"ax","countryName":"Aland Islands","regionId":"europe","regionName":"Europe","stateId":null,"stateName":null,"latitude":60.0970945,"longitude":19.9348339},"locationType":"VIRTUAL","virtualLocationCountryId":null,"virtualLocationCountryName":null,"p2pAllowed":false,"streaming":false,"gatewaysCount":2,"ipsCount":6},{"locationDetails":{"cityId":"bak","cityName":"Qusar","countryId":"az","countryName":"Azerbaijan","regionId":"asia_pacific","regionName":"Asia Pacific","stateId":null,"stateName":null,"latitude":41.4266886,"longitude":48.4345577},"locationType":"VIRTUAL","virtualLocationCountryId":null,"virtualLocationCountryName":null,"p2pAllowed":false,"streaming":false,"gatewaysCount":2,"ipsCount":6},{"locationDetails":{"cityId":"sjj","cityName":"Sarajevo","countryId":"ba","countryName":"Bosnia","regionId":"europe","regionName":"Europe","stateId":null,"stateName":null,"latitude":43.8704335,"longitude":18.417871},"locationType":"VIRTUAL","virtualLocationCountryId":null,"virtualLocationCountryName":null,"p2pAllowed":false,"streaming":false,"gatewaysCount":2,"ipsCount":6},{"locationDetails":{"cityId":"bgi","cityName":"Worthing","countryId":"bb","countryName":"Barbados","regionId":"north_america","regionName":"North America","stateId":null,"stateName":null,"latitude":13.0747034,"longitude":-59.5836825},"locationType":"VIRTUAL","virtualLocationCountryId":null,"virtualLocationCountryName":null,"p2pAllowed":false,"streaming":false,"gatewaysCount":2,"ipsCount":6},{"locationDetails":{"cityId":"dac","cityName":"Dhaka","countryId":"bd","countryName":"Bangladesh","regionId":"asia_pacific","regionName":"Asia Pacific","stateId":null,"stateName":null,"latitude":23.810332,"longitude":90.4125181},"locationType":"VIRTUAL","virtualLocationCountryId":null,"virtualLocationCountryName":null,"p2pAllowed":false,"streaming":false,"gatewaysCount":2,"ipsCount":6},{"locationDetails":{"cityId":"bru","cityName":"Brussels","countryId":"be","countryName":"Belgium","regionId":"europe","regionName":"Europe","stateId":null,"stateName":null,"latitude":50.8503463,"longitude":4.3517211},"locationType":"PHYSICAL","virtualLocationCountryId":null,"virtualLocationCountryName":null,"p2pAllowed":false,"streaming":false,"gatewaysCount":4,"ipsCount":39},{"locationDetails":{"cityId":"oua","cityName":"Ouagadougou","countryId":"bf","countryName":"Burkina Faso","regionId":"africa","regionName":"Africa","stateId":null,"stateName":null,"latitude":12.3714277,"longitude":-1.5196603},"locationType":"VIRTUAL","virtualLocationCountryId":null,"virtualLocationCountryName":null,"p2pAllowed":false,"streaming":false,"gatewaysCount":2,"ipsCount":6},{"locationDetails":{"cityId":"sof","cityName":"Sofia","countryId":"bg","countryName":"Bulgaria","regionId":"europe","regionName":"Europe","stateId":null,"stateName":null,"latitude":42.6977082,"longitude":23.3218675},"locationType":"VIRTUAL","virtualLocationCountryId":null,"virtualLocationCountryName":null,"p2pAllowed":false,"streaming":false,"gatewaysCount":2,"ipsCount":6},{"locationDetails":{"cityId":"amh","cityName":"Manama","countryId":"bh","countryName":"Bahrain","regionId":"middle_east","regionName":"Middle East","stateId":null,"stateName":null,"latitude":26.2285161,"longitude":50.5860497},"locationType":"VIRTUAL","virtualLocationCountryId":null,"virtualLocationCountryName":null,"p2pAllowed":false,"streaming":false,"gatewaysCount":2,"ipsCount":6},{"locationDetails":{"cityId":"bjm","cityName":"Bujumbura","countryId":"bi","countryName":"Burundi","regionId":"africa","regionName":"Africa","stateId":null,"stateName":null,"latitude":-3.361378,"longitude":29.3598782},"locationType":"VIRTUAL","virtualLocationCountryId":null,"virtualLocationCountryName":null,"p2pAllowed":false,"streaming":false,"gatewaysCount":2,"ipsCount":6},{"locationDetails":{"cityId":"coo","cityName":"Cotonou","countryId":"bj","countryName":"Benin","regionId":"africa","regionName":"Africa","stateId":null,"stateName":null,"latitude":6.3702928,"longitude":2.3912362},"locationType":"VIRTUAL","virtualLocationCountryId":null,"virtualLocationCountryName":null,"p2pAllowed":false,"streaming":false,"gatewaysCount":2,"ipsCount":6},{"locationDetails":{"cityId":"bda","cityName":"Hamilton","countryId":"bm","countryName":"Bermuda","regionId":"north_america","regionName":"North America","stateId":null,"stateName":null,"latitude":32.2945837,"longitude":-64.7858887},"locationType":"VIRTUAL","virtualLocationCountryId":null,"virtualLocationCountryName":null,"p2pAllowed":false,"streaming":false,"gatewaysCount":2,"ipsCount":6},{"locationDetails":{"cityId":"bwn","cityName":"Jerudong","countryId":"bn","countryName":"Brunei","regionId":"asia_pacific","regionName":"Asia Pacific","stateId":null,"stateName":null,"latitude":4.9476279,"longitude":114.8359769},"locationType":"VIRTUAL","virtualLocationCountryId":null,"virtualLocationCountryName":null,"p2pAllowed":false,"streaming":false,"gatewaysCount":2,"ipsCount":6},{"locationDetails":{"cityId":"srz","cityName":"Santa Cruz","countryId":"bo","countryName":"Bolivia","regionId":"south_america","regionName":"South America","stateId":null,"stateName":null,"latitude":-17.8145819,"longitude":-63.1560853},"locationType":"VIRTUAL","virtualLocationCountryId":null,"virtualLocationCountryName":null,"p2pAllowed":false,"streaming":false,"gatewaysCount":2,"ipsCount":6},{"locationDetails":{"cityId":"sao","cityName":"São Paulo","countryId":"br","countryName":"Brazil","regionId":"south_america","regionName":"South America","stateId":null,"stateName":null,"latitude":-23.5505199,"longitude":-46.6333094},"locationType":"PHYSICAL","virtualLocationCountryId":null,"virtualLocationCountryName":null,"p2pAllowed":false,"streaming":false,"gatewaysCount":20,"ipsCount":278},{"locationDetails":{"cityId":"sao","cityName":"São Paulo","countryId":"br","countryName":"Brazil","regionId":"south_america","regionName":"South America","stateId":null,"stateName":null,"latitude":-23.5505199,"longitude":-46.6333094},"locationType":"VIRTUAL","virtualLocationCountryId":"us","virtualLocationCountryName":"USA","p2pAllowed":false,"streaming":false,"gatewaysCount":2,"ipsCount":30},{"locationDetails":{"cityId":"fpo","cityName":"Freeport","countryId":"bs","countryName":"Bahamas","regionId":"north_america","regionName":"North America","stateId":null,"stateName":null,"latitude":26.5416093,"longitude":-78.6455475},"locationType":"VIRTUAL","virtualLocationCountryId":null,"virtualLocationCountryName":null,"p2pAllowed":false,"streaming":false,"gatewaysCount":2,"ipsCount":6},{"locationDetails":{"cityId":"thi","cityName":"Thimphu","countryId":"bt","countryName":"Bhutan","regionId":"asia_pacific","regionName":"Asia Pacific","stateId":null,"stateName":null,"latitude":27.4727924,"longitude":89.6392863},"locationType":"VIRTUAL","virtualLocationCountryId":null,"virtualLocationCountryName":null,"p2pAllowed":false,"streaming":false,"gatewaysCount":2,"ipsCount":6},{"locationDetails":{"cityId":"gbe","cityName":"Gaborone","countryId":"bw","countryName":"Botswana","regionId":"africa","regionName":"Africa","stateId":null,"stateName":null,"latitude":-24.6282079,"longitude":25.9231471},"locationType":"VIRTUAL","virtualLocationCountryId":null,"virtualLocationCountryName":null,"p2pAllowed":false,"streaming":false,"gatewaysCount":2,"ipsCount":6},{"locationDetails":{"cityId":"msq","cityName":"Minsk","countryId":"by","countryName":"Belarus","regionId":"europe","regionName":"Europe","stateId":null,"stateName":null,"latitude":53.9045398,"longitude":27.5615244},"locationType":"VIRTUAL","virtualLocationCountryId":null,"virtualLocationCountryName":null,"p2pAllowed":false,"streaming":false,"gatewaysCount":2,"ipsCount":6},{"locationDetails":{"cityId":"bze","cityName":"Belize City","countryId":"bz","countryName":"Belize","regionId":"south_america","regionName":"South America","stateId":null,"stateName":null,"latitude":17.5045661,"longitude":-88.1962133},"locationType":"VIRTUAL","virtualLocationCountryId":null,"virtualLocationCountryName":null,"p2pAllowed":false,"streaming":false,"gatewaysCount":2,"ipsCount":6},{"locationDetails":{"cityId":"mtr","cityName":"Montreal","countryId":"ca","countryName":"Canada","regionId":"north_america","regionName":"North America","stateId":null,"stateName":null,"latitude":45.5016889,"longitude":-73.567256},"locationType":"PHYSICAL","virtualLocationCountryId":null,"virtualLocationCountryName":null,"p2pAllowed":false,"streaming":false,"gatewaysCount":9,"ipsCount":135},{"locationDetails":{"cityId":"tor","cityName":"Toronto","countryId":"ca","countryName":"Canada","regionId":"north_america","regionName":"North America","stateId":null,"stateName":null,"latitude":43.653226,"longitude":-79.3831843},"locationType":"PHYSICAL","virtualLocationCountryId":null,"virtualLocationCountryName":null,"p2pAllowed":false,"streaming":false,"gatewaysCount":35,"ipsCount":336},{"locationDetails":{"cityId":"van","cityName":"Vancouver","countryId":"ca","countryName":"Canada","regionId":"north_america","regionName":"North America","stateId":null,"stateName":null,"latitude":49.2827291,"longitude":-123.1207375},"locationType":"PHYSICAL","virtualLocationCountryId":null,"virtualLocationCountryName":null,"p2pAllowed":false,"streaming":false,"gatewaysCount":13,"ipsCount":161},{"locationDetails":{"cityId":"cck","cityName":"West Island","countryId":"cc","countryName":"Cocos Islands","regionId":"asia_pacific","regionName":"Asia Pacific","stateId":null,"stateName":null,"latitude":-12.1450486,"longitude":96.8217017},"locationType":"VIRTUAL","virtualLocationCountryId":null,"virtualLocationCountryName":null,"p2pAllowed":false,"streaming":false,"gatewaysCount":2,"ipsCount":6},{"locationDetails":{"cityId":"fih","cityName":"Kinshasa","countryId":"cd","countryName":"Congo","regionId":"africa","regionName":"Africa","stateId":null,"stateName":null,"latitude":-4.4419311,"longitude":15.2662931},"locationType":"VIRTUAL","virtualLocationCountryId":null,"virtualLocationCountryName":null,"p2pAllowed":false,"streaming":false,"gatewaysCount":2,"ipsCount":6},{"locationDetails":{"cityId":"bgu","cityName":"Bangassou","countryId":"cf","countryName":"Central African Republic","regionId":"africa","regionName":"Africa","stateId":null,"stateName":null,"latitude":4.7378613,"longitude":22.8165095},"locationType":"VIRTUAL","virtualLocationCountryId":null,"virtualLocationCountryName":null,"p2pAllowed":false,"streaming":false,"gatewaysCount":2,"ipsCount":6},{"locationDetails":{"cityId":"bzv","cityName":"Brazzaville","countryId":"cg","countryName":"Republic of the Congo","regionId":"africa","regionName":"Africa","stateId":null,"stateName":null,"latitude":-4.2633597,"longitude":15.2428853},"locationType":"VIRTUAL","virtualLocationCountryId":null,"virtualLocationCountryName":null,"p2pAllowed":false,"streaming":false,"gatewaysCount":2,"ipsCount":6},{"locationDetails":{"cityId":"zrh","cityName":"Zurich","countryId":"ch","countryName":"Switzerland","regionId":"europe","regionName":"Europe","stateId":null,"stateName":null,"latitude":47.3768866,"longitude":8.541694},"locationType":"PHYSICAL","virtualLocationCountryId":null,"virtualLocationCountryName":null,"p2pAllowed":false,"streaming":false,"gatewaysCount":6,"ipsCount":69},{"locationDetails":{"cityId":"ask","cityName":"Yamoussoukro","countryId":"ci","countryName":"Cote d`Ivoire","regionId":"africa","regionName":"Africa","stateId":null,"stateName":null,"latitude":6.8276228,"longitude":-5.2893433},"locationType":"VIRTUAL","virtualLocationCountryId":null,"virtualLocationCountryName":null,"p2pAllowed":false,"streaming":false,"gatewaysCount":2,"ipsCount":6},{"locationDetails":{"cityId":"ava","cityName":"Avarua","countryId":"ck","countryName":"Cook Islands","regionId":"asia_pacific","regionName":"Asia Pacific","stateId":null,"stateName":null,"latitude":-21.2129007,"longitude":-159.7823059},"locationType":"VIRTUAL","virtualLocationCountryId":null,"virtualLocationCountryName":null,"p2pAllowed":false,"streaming":false,"gatewaysCount":2,"ipsCount":6},{"locationDetails":{"cityId":"scl","cityName":"Santiago","countryId":"cl","countryName":"Chile","regionId":"south_america","regionName":"South America","stateId":null,"stateName":null,"latitude":-33.4488897,"longitude":-70.6692655},"locationType":"VIRTUAL","virtualLocationCountryId":null,"virtualLocationCountryName":null,"p2pAllowed":false,"streaming":false,"gatewaysCount":2,"ipsCount":6},{"locationDetails":{"cityId":"yao","cityName":"Yaounde","countryId":"cm","countryName":"Cameroon","regionId":"africa","regionName":"Africa","stateId":null,"stateName":null,"latitude":3.8480325,"longitude":11.5020752},"locationType":"VIRTUAL","virtualLocationCountryId":null,"virtualLocationCountryName":null,"p2pAllowed":false,"streaming":false,"gatewaysCount":2,"ipsCount":6},{"locationDetails":{"cityId":"bjs","cityName":"Beijing","countryId":"cn","countryName":"China","regionId":"asia_pacific","regionName":"Asia Pacific","stateId":null,"stateName":null,"latitude":39.904211,"longitude":116.407395},"locationType":"VIRTUAL","virtualLocationCountryId":null,"virtualLocationCountryName":null,"p2pAllowed":false,"streaming":false,"gatewaysCount":4,"ipsCount":12},{"locationDetails":{"cityId":"sac","cityName":"San Andres","countryId":"co","countryName":"Colombia","regionId":"south_america","regionName":"South America","stateId":null,"stateName":null,"latitude":12.5450153,"longitude":-81.7075787},"locationType":"VIRTUAL","virtualLocationCountryId":null,"virtualLocationCountryName":null,"p2pAllowed":false,"streaming":false,"gatewaysCount":2,"ipsCount":6},{"locationDetails":{"cityId":"sjo","cityName":"San José","countryId":"cr","countryName":"Costa Rica","regionId":"south_america","regionName":"South America","stateId":null,"stateName":null,"latitude":9.9280694,"longitude":-84.0907246},"locationType":"VIRTUAL","virtualLocationCountryId":null,"virtualLocationCountryName":null,"p2pAllowed":false,"streaming":false,"gatewaysCount":2,"ipsCount":6},{"locationDetails":{"cityId":"hav","cityName":"Havana","countryId":"cu","countryName":"Cuba","regionId":"north_america","regionName":"North America","stateId":null,"stateName":null,"latitude":23.1135925,"longitude":-82.3665956},"locationType":"VIRTUAL","virtualLocationCountryId":null,"virtualLocationCountryName":null,"p2pAllowed":false,"streaming":false,"gatewaysCount":2,"ipsCount":6},{"locationDetails":{"cityId":"rai","cityName":"Cidade Velha","countryId":"cv","countryName":"Cape Verde","regionId":"africa","regionName":"Africa","stateId":null,"stateName":null,"latitude":14.9163748,"longitude":-23.6040974},"locationType":"VIRTUAL","virtualLocationCountryId":null,"virtualLocationCountryName":null,"p2pAllowed":false,"streaming":false,"gatewaysCount":2,"ipsCount":6},{"locationDetails":{"cityId":"ffc","cityName":"Flying Fish Cove","countryId":"cx","countryName":"Christmas Island","regionId":"asia_pacific","regionName":"Asia Pacific","stateId":null,"stateName":null,"latitude":-10.4318725,"longitude":105.6735131},"locationType":"VIRTUAL","virtualLocationCountryId":null,"virtualLocationCountryName":null,"p2pAllowed":false,"streaming":false,"gatewaysCount":2,"ipsCount":6},{"locationDetails":{"cityId":"nic","cityName":"Nicosia","countryId":"cy","countryName":"Cyprus","regionId":"europe","regionName":"Europe","stateId":null,"stateName":null,"latitude":35.1855659,"longitude":33.3822764},"locationType":"VIRTUAL","virtualLocationCountryId":null,"virtualLocationCountryName":null,"p2pAllowed":false,"streaming":false,"gatewaysCount":2,"ipsCount":6},{"locationDetails":{"cityId":"prg","cityName":"Prague","countryId":"cz","countryName":"Czech Republic","regionId":"europe","regionName":"Europe","stateId":null,"stateName":null,"latitude":50.0755381,"longitude":14.4378005},"locationType":"PHYSICAL","virtualLocationCountryId":null,"virtualLocationCountryName":null,"p2pAllowed":true,"streaming":false,"gatewaysCount":7,"ipsCount":67},{"locationDetails":{"cityId":"ber","cityName":"Berlin","countryId":"de","countryName":"Germany","regionId":"europe","regionName":"Europe","stateId":null,"stateName":null,"latitude":52.5200066,"longitude":13.404954},"locationType":"PHYSICAL","virtualLocationCountryId":null,"virtualLocationCountryName":null,"p2pAllowed":false,"streaming":false,"gatewaysCount":17,"ipsCount":169},{"locationDetails":{"cityId":"fra","cityName":"Frankfurt","countryId":"de","countryName":"Germany","regionId":"europe","regionName":"Europe","stateId":null,"stateName":null,"latitude":50.1109221,"longitude":8.6821267},"locationType":"PHYSICAL","virtualLocationCountryId":null,"virtualLocationCountryName":null,"p2pAllowed":true,"streaming":true,"gatewaysCount":7,"ipsCount":326},{"locationDetails":{"cityId":"fra","cityName":"Frankfurt","countryId":"de","countryName":"Germany","regionId":"europe","regionName":"Europe","stateId":null,"stateName":null,"latitude":50.1109221,"longitude":8.6821267},"locationType":"VIRTUAL","virtualLocationCountryId":"ca","virtualLocationCountryName":"Canada","p2pAllowed":false,"streaming":false,"gatewaysCount":4,"ipsCount":32},{"locationDetails":{"cityId":"fra","cityName":"Frankfurt","countryId":"de","countryName":"Germany","regionId":"europe","regionName":"Europe","stateId":null,"stateName":null,"latitude":50.1109221,"longitude":8.6821267},"locationType":"VIRTUAL","virtualLocationCountryId":"us","virtualLocationCountryName":"USA","p2pAllowed":false,"streaming":false,"gatewaysCount":6,"ipsCount":48},{"locationDetails":{"cityId":"jib","cityName":"Djibouti","countryId":"dj","countryName":"Republic of Djibouti","regionId":"africa","regionName":"Africa","stateId":null,"stateName":null,"latitude":11.825138,"longitude":42.590275},"locationType":"VIRTUAL","virtualLocationCountryId":null,"virtualLocationCountryName":null,"p2pAllowed":false,"streaming":false,"gatewaysCount":2,"ipsCount":6},{"locationDetails":{"cityId":"cph","cityName":"Copenhagen","countryId":"dk","countryName":"Denmark","regionId":"europe","regionName":"Europe","stateId":null,"stateName":null,"latitude":55.6760968,"longitude":12.5683371},"locationType":"PHYSICAL","virtualLocationCountryId":null,"virtualLocationCountryName":null,"p2pAllowed":false,"streaming":false,"gatewaysCount":12,"ipsCount":132},{"locationDetails":{"cityId":"dom","cityName":"Marigot","countryId":"dm","countryName":"Dominica","regionId":"north_america","regionName":"North America","stateId":null,"stateName":null,"latitude":15.5368142,"longitude":-61.283115},"locationType":"VIRTUAL","virtualLocationCountryId":null,"virtualLocationCountryName":null,"p2pAllowed":false,"streaming":false,"gatewaysCount":2,"ipsCount":6},{"locationDetails":{"cityId":"pcn","cityName":"Punta Cana","countryId":"do","countryName":"Dominican Republic","regionId":"north_america","regionName":"North America","stateId":null,"stateName":null,"latitude":18.8539206,"longitude":-71.3009387},"locationType":"VIRTUAL","virtualLocationCountryId":null,"virtualLocationCountryName":null,"p2pAllowed":false,"streaming":false,"gatewaysCount":2,"ipsCount":6},{"locationDetails":{"cityId":"aae","cityName":"Annaba","countryId":"dz","countryName":"Algeria","regionId":"africa","regionName":"Africa","stateId":null,"stateName":null,"latitude":36.9264582,"longitude":7.7525352},"locationType":"VIRTUAL","virtualLocationCountryId":null,"virtualLocationCountryName":null,"p2pAllowed":false,"streaming":false,"gatewaysCount":2,"ipsCount":6},{"locationDetails":{"cityId":"uio","cityName":"Quito","countryId":"ec","countryName":"Ecuador","regionId":"south_america","regionName":"South America","stateId":null,"stateName":null,"latitude":-0.1806532,"longitude":-78.4678382},"locationType":"VIRTUAL","virtualLocationCountryId":null,"virtualLocationCountryName":null,"p2pAllowed":false,"streaming":false,"gatewaysCount":2,"ipsCount":6},{"locationDetails":{"cityId":"tll","cityName":"Tallinn","countryId":"ee","countryName":"Estonia","regionId":"europe","regionName":"Europe","stateId":null,"stateName":null,"latitude":59.4369608,"longitude":24.7535746},"locationType":"VIRTUAL","virtualLocationCountryId":null,"virtualLocationCountryName":null,"p2pAllowed":false,"streaming":false,"gatewaysCount":2,"ipsCount":6},{"locationDetails":{"cityId":"cai","cityName":"Cairo","countryId":"eg","countryName":"Egypt","regionId":"africa","regionName":"Africa","stateId":null,"stateName":null,"latitude":30.0444196,"longitude":31.2357116},"locationType":"VIRTUAL","virtualLocationCountryId":null,"virtualLocationCountryName":null,"p2pAllowed":false,"streaming":false,"gatewaysCount":2,"ipsCount":6},{"locationDetails":{"cityId":"asm","cityName":"Asmara","countryId":"er","countryName":"Eritrea","regionId":"africa","regionName":"Africa","stateId":null,"stateName":null,"latitude":15.3228767,"longitude":38.9250517},"locationType":"VIRTUAL","virtualLocationCountryId":null,"virtualLocationCountryName":null,"p2pAllowed":false,"streaming":false,"gatewaysCount":2,"ipsCount":6},{"locationDetails":{"cityId":"bcn","cityName":"Barcelona","countryId":"es","countryName":"Spain","regionId":"europe","regionName":"Europe","stateId":null,"stateName":null,"latitude":41.3850639,"longitude":2.1734035},"locationType":"PHYSICAL","virtualLocationCountryId":null,"virtualLocationCountryName":null,"p2pAllowed":false,"streaming":false,"gatewaysCount":8,"ipsCount":88},{"locationDetails":{"cityId":"mad","cityName":"Madrid","countryId":"es","countryName":"Spain","regionId":"europe","regionName":"Europe","stateId":null,"stateName":null,"latitude":40.4167754,"longitude":-3.7037902},"locationType":"PHYSICAL","virtualLocationCountryId":null,"virtualLocationCountryName":null,"p2pAllowed":false,"streaming":false,"gatewaysCount":13,"ipsCount":142},{"locationDetails":{"cityId":"gdq","cityName":"Gondar","countryId":"et","countryName":"Ethiopia","regionId":"africa","regionName":"Africa","stateId":null,"stateName":null,"latitude":12.6030181,"longitude":37.4521319},"locationType":"VIRTUAL","virtualLocationCountryId":null,"virtualLocationCountryName":null,"p2pAllowed":false,"streaming":false,"gatewaysCount":2,"ipsCount":6},{"locationDetails":{"cityId":"hel","cityName":"Helsinki","countryId":"fi","countryName":"Finland","regionId":"europe","regionName":"Europe","stateId":null,"stateName":null,"latitude":60.1698557,"longitude":24.938379},"locationType":"PHYSICAL","virtualLocationCountryId":null,"virtualLocationCountryName":null,"p2pAllowed":false,"streaming":false,"gatewaysCount":7,"ipsCount":91},{"locationDetails":{"cityId":"nan","cityName":"Nadi","countryId":"fj","countryName":"Fiji","regionId":"asia_pacific","regionName":"Asia Pacific","stateId":null,"stateName":null,"latitude":-17.7765356,"longitude":177.4356227},"locationType":"VIRTUAL","virtualLocationCountryId":null,"virtualLocationCountryName":null,"p2pAllowed":false,"streaming":false,"gatewaysCount":2,"ipsCount":6},{"locationDetails":{"cityId":"psy","cityName":"Stanley","countryId":"fk","countryName":"Falkland Islands","regionId":"south_america","regionName":"South America","stateId":null,"stateName":null,"latitude":-51.6977129,"longitude":-57.8516627},"locationType":"VIRTUAL","virtualLocationCountryId":null,"virtualLocationCountryName":null,"p2pAllowed":false,"streaming":false,"gatewaysCount":2,"ipsCount":6},{"locationDetails":{"cityId":"tvn","cityName":"Torshavn","countryId":"fo","countryName":"Faroe Islands","regionId":"europe","regionName":"Europe","stateId":null,"stateName":null,"latitude":62.007864,"longitude":-6.7909816},"locationType":"VIRTUAL","virtualLocationCountryId":null,"virtualLocationCountryName":null,"p2pAllowed":false,"streaming":false,"gatewaysCount":2,"ipsCount":6},{"locationDetails":{"cityId":"mrs","cityName":"Marseille","countryId":"fr","countryName":"France","regionId":"europe","regionName":"Europe","stateId":null,"stateName":null,"latitude":43.29695,"longitude":5.38107},"locationType":"PHYSICAL","virtualLocationCountryId":null,"virtualLocationCountryName":null,"p2pAllowed":false,"streaming":false,"gatewaysCount":2,"ipsCount":18},{"locationDetails":{"cityId":"par","cityName":"Paris","countryId":"fr","countryName":"France","regionId":"europe","regionName":"Europe","stateId":null,"stateName":null,"latitude":48.856614,"longitude":2.3522219},"locationType":"PHYSICAL","virtualLocationCountryId":null,"virtualLocationCountryName":null,"p2pAllowed":true,"streaming":false,"gatewaysCount":24,"ipsCount":500},{"locationDetails":{"cityId":"lbv","cityName":"Libreville","countryId":"ga","countryName":"Gabon","regionId":"africa","regionName":"Africa","stateId":null,"stateName":null,"latitude":0.4161976,"longitude":9.4672676},"locationType":"VIRTUAL","virtualLocationCountryId":null,"virtualLocationCountryName":null,"p2pAllowed":false,"streaming":false,"gatewaysCount":2,"ipsCount":6},{"locationDetails":{"cityId":"dnk","cityName":"Donkey Town","countryId":"gb","countryName":"UK","regionId":"europe","regionName":"Europe","stateId":null,"stateName":null,"latitude":50.184315,"longitude":-1.58077},"locationType":"VIRTUAL","virtualLocationCountryId":null,"virtualLocationCountryName":null,"p2pAllowed":false,"streaming":true,"gatewaysCount":2,"ipsCount":20},{"locationDetails":{"cityId":"glw","cityName":"Glasgow","countryId":"gb","countryName":"UK","regionId":"europe","regionName":"Europe","stateId":null,"stateName":null,"latitude":55.8641622,"longitude":-4.2513729},"locationType":"PHYSICAL","virtualLocationCountryId":null,"virtualLocationCountryName":null,"p2pAllowed":false,"streaming":false,"gatewaysCount":11,"ipsCount":143},{"locationDetails":{"cityId":"lon","cityName":"London","countryId":"gb","countryName":"UK","regionId":"europe","regionName":"Europe","stateId":null,"stateName":null,"latitude":51.5123443,"longitude":-0.0909852},"locationType":"PHYSICAL","virtualLocationCountryId":null,"virtualLocationCountryName":null,"p2pAllowed":true,"streaming":false,"gatewaysCount":9,"ipsCount":336},{"locationDetails":{"cityId":"lon","cityName":"London","countryId":"gb","countryName":"UK","regionId":"europe","regionName":"Europe","stateId":null,"stateName":null,"latitude":51.5123443,"longitude":-0.0909852},"locationType":"VIRTUAL","virtualLocationCountryId":"pt","virtualLocationCountryName":"Portugal","p2pAllowed":false,"streaming":false,"gatewaysCount":2,"ipsCount":6},{"locationDetails":{"cityId":"lon","cityName":"London","countryId":"gb","countryName":"UK","regionId":"europe","regionName":"Europe","stateId":null,"stateName":null,"latitude":51.5123443,"longitude":-0.0909852},"locationType":"VIRTUAL","virtualLocationCountryId":"us","virtualLocationCountryName":"USA","p2pAllowed":false,"streaming":false,"gatewaysCount":2,"ipsCount":6},{"locationDetails":{"cityId":"stg","cityName":"Saint George","countryId":"gd","countryName":"Grenada","regionId":"north_america","regionName":"North America","stateId":null,"stateName":null,"latitude":12.0560975,"longitude":-61.7487996},"locationType":"VIRTUAL","virtualLocationCountryId":null,"virtualLocationCountryName":null,"p2pAllowed":false,"streaming":false,"gatewaysCount":2,"ipsCount":6},{"locationDetails":{"cityId":"tbs","cityName":"Tbilisi","countryId":"ge","countryName":"Georgia","regionId":"europe","regionName":"Europe","stateId":null,"stateName":null,"latitude":41.7151377,"longitude":44.827096},"locationType":"VIRTUAL","virtualLocationCountryId":null,"virtualLocationCountryName":null,"p2pAllowed":false,"streaming":false,"gatewaysCount":2,"ipsCount":6},{"locationDetails":{"cityId":"acc","cityName":"Accra","countryId":"gh","countryName":"Ghana","regionId":"africa","regionName":"Africa","stateId":null,"stateName":null,"latitude":5.6037168,"longitude":-0.1869644},"locationType":"VIRTUAL","virtualLocationCountryId":null,"virtualLocationCountryName":null,"p2pAllowed":false,"streaming":false,"gatewaysCount":2,"ipsCount":6},{"locationDetails":{"cityId":"wtp","cityName":"Catalan","countryId":"gi","countryName":"Gibraltar","regionId":"europe","regionName":"Europe","stateId":null,"stateName":null,"latitude":36.1398084,"longitude":-5.3409862},"locationType":"VIRTUAL","virtualLocationCountryId":null,"virtualLocationCountryName":null,"p2pAllowed":false,"streaming":false,"gatewaysCount":2,"ipsCount":6},{"locationDetails":{"cityId":"jav","cityName":"Ilulissat","countryId":"gl","countryName":"Greenland","regionId":"north_america","regionName":"North America","stateId":null,"stateName":null,"latitude":69.2198118,"longitude":-51.0986032},"locationType":"VIRTUAL","virtualLocationCountryId":null,"virtualLocationCountryName":null,"p2pAllowed":false,"streaming":false,"gatewaysCount":2,"ipsCount":6},{"locationDetails":{"cityId":"ske","cityName":"Serekunda","countryId":"gm","countryName":"Gambia","regionId":"africa","regionName":"Africa","stateId":null,"stateName":null,"latitude":13.4502991,"longitude":-16.6880841},"locationType":"VIRTUAL","virtualLocationCountryId":null,"virtualLocationCountryName":null,"p2pAllowed":false,"streaming":false,"gatewaysCount":2,"ipsCount":6},{"locationDetails":{"cityId":"cky","cityName":"Conakry","countryId":"gn","countryName":"Guinea","regionId":"africa","regionName":"Africa","stateId":null,"stateName":null,"latitude":9.6411855,"longitude":-13.5784012},"locationType":"VIRTUAL","virtualLocationCountryId":null,"virtualLocationCountryName":null,"p2pAllowed":false,"streaming":false,"gatewaysCount":2,"ipsCount":6},{"locationDetails":{"cityId":"gos","cityName":"Le Gosier","countryId":"gp","countryName":"Guadeloupe","regionId":"north_america","regionName":"North America","stateId":null,"stateName":null,"latitude":16.2216057,"longitude":-61.4785718},"locationType":"VIRTUAL","virtualLocationCountryId":null,"virtualLocationCountryName":null,"p2pAllowed":false,"streaming":false,"gatewaysCount":2,"ipsCount":6},{"locationDetails":{"cityId":"ssg","cityName":"Malabo","countryId":"gq","countryName":"Equatorial Guinea","regionId":"africa","regionName":"Africa","stateId":null,"stateName":null,"latitude":3.7504118,"longitude":8.7371039},"locationType":"VIRTUAL","virtualLocationCountryId":null,"virtualLocationCountryName":null,"p2pAllowed":false,"streaming":false,"gatewaysCount":2,"ipsCount":6},{"locationDetails":{"cityId":"ath","cityName":"Athens","countryId":"gr","countryName":"Greece","regionId":"europe","regionName":"Europe","stateId":null,"stateName":null,"latitude":37.9838096,"longitude":23.7275388},"locationType":"VIRTUAL","virtualLocationCountryId":null,"virtualLocationCountryName":null,"p2pAllowed":false,"streaming":false,"gatewaysCount":2,"ipsCount":6},{"locationDetails":{"cityId":"gua","cityName":"Guatemala City","countryId":"gt","countryName":"Guatemala","regionId":"south_america","regionName":"South America","stateId":null,"stateName":null,"latitude":14.6349149,"longitude":-90.5068824},"locationType":"VIRTUAL","virtualLocationCountryId":null,"virtualLocationCountryName":null,"p2pAllowed":false,"streaming":false,"gatewaysCount":2,"ipsCount":6},{"locationDetails":{"cityId":"tmg","cityName":"Tamuning","countryId":"gu","countryName":"Guam","regionId":"asia_pacific","regionName":"Asia Pacific","stateId":null,"stateName":null,"latitude":13.5027167,"longitude":144.8016402},"locationType":"VIRTUAL","virtualLocationCountryId":null,"virtualLocationCountryName":null,"p2pAllowed":false,"streaming":false,"gatewaysCount":2,"ipsCount":6},{"locationDetails":{"cityId":"oxb","cityName":"Bissau","countryId":"gw","countryName":"Guinea-Bissau","regionId":"africa","regionName":"Africa","stateId":null,"stateName":null,"latitude":11.8816553,"longitude":-15.6177942},"locationType":"VIRTUAL","virtualLocationCountryId":null,"virtualLocationCountryName":null,"p2pAllowed":false,"streaming":false,"gatewaysCount":2,"ipsCount":6},{"locationDetails":{"cityId":"geo","cityName":"Barima-Waini","countryId":"gy","countryName":"Guyana","regionId":"south_america","regionName":"South America","stateId":null,"stateName":null,"latitude":7.4882419,"longitude":-59.6564494},"locationType":"VIRTUAL","virtualLocationCountryId":null,"virtualLocationCountryName":null,"p2pAllowed":false,"streaming":false,"gatewaysCount":2,"ipsCount":6},{"locationDetails":{"cityId":"tgu","cityName":"Tegucigalpa","countryId":"hn","countryName":"Honduras","regionId":"south_america","regionName":"South America","stateId":null,"stateName":null,"latitude":14.0722751,"longitude":-87.192136},"locationType":"VIRTUAL","virtualLocationCountryId":null,"virtualLocationCountryName":null,"p2pAllowed":false,"streaming":false,"gatewaysCount":2,"ipsCount":6},{"locationDetails":{"cityId":"zag","cityName":"Zagreb","countryId":"hr","countryName":"Croatia","regionId":"europe","regionName":"Europe","stateId":null,"stateName":null,"latitude":45.8683395,"longitude":16.1659097},"locationType":"VIRTUAL","virtualLocationCountryId":null,"virtualLocationCountryName":null,"p2pAllowed":false,"streaming":false,"gatewaysCount":2,"ipsCount":6},{"locationDetails":{"cityId":"cap","cityName":"Cap-Haitien","countryId":"ht","countryName":"Haiti","regionId":"north_america","regionName":"North America","stateId":null,"stateName":null,"latitude":19.7370362,"longitude":-72.2067681},"locationType":"VIRTUAL","virtualLocationCountryId":null,"virtualLocationCountryName":null,"p2pAllowed":false,"streaming":false,"gatewaysCount":2,"ipsCount":6},{"locationDetails":{"cityId":"bud","cityName":"Budapest","countryId":"hu","countryName":"Hungary","regionId":"europe","regionName":"Europe","stateId":null,"stateName":null,"latitude":47.497912,"longitude":19.040235},"locationType":"PHYSICAL","virtualLocationCountryId":null,"virtualLocationCountryName":null,"p2pAllowed":false,"streaming":false,"gatewaysCount":8,"ipsCount":88},{"locationDetails":{"cityId":"jkt","cityName":"Jakarta","countryId":"id","countryName":"Indonesia","regionId":"asia_pacific","regionName":"Asia Pacific","stateId":null,"stateName":null,"latitude":-6.1744651,"longitude":106.822745},"locationType":"VIRTUAL","virtualLocationCountryId":null,"virtualLocationCountryName":null,"p2pAllowed":false,"streaming":false,"gatewaysCount":2,"ipsCount":6},{"locationDetails":{"cityId":"dub","cityName":"Dublin","countryId":"ie","countryName":"Ireland","regionId":"europe","regionName":"Europe","stateId":null,"stateName":null,"latitude":53.3498053,"longitude":-6.2603097},"locationType":"PHYSICAL","virtualLocationCountryId":null,"virtualLocationCountryName":null,"p2pAllowed":false,"streaming":false,"gatewaysCount":9,"ipsCount":82},{"locationDetails":{"cityId":"tlv","cityName":"Tel Aviv","countryId":"il","countryName":"Israel","regionId":"middle_east","regionName":"Middle East","stateId":null,"stateName":null,"latitude":32.0772743,"longitude":34.7859207},"locationType":"PHYSICAL","virtualLocationCountryId":null,"virtualLocationCountryName":null,"p2pAllowed":false,"streaming":false,"gatewaysCount":4,"ipsCount":44},{"locationDetails":{"cityId":"bom","cityName":"Mumbai","countryId":"in","countryName":"India","regionId":"asia_pacific","regionName":"Asia Pacific","stateId":null,"stateName":null,"latitude":19.108235,"longitude":73.023563},"locationType":"VIRTUAL","virtualLocationCountryId":null,"virtualLocationCountryName":null,"p2pAllowed":false,"streaming":false,"gatewaysCount":2,"ipsCount":6},{"locationDetails":{"cityId":"bgw","cityName":"Baghdad","countryId":"iq","countryName":"Iraq","regionId":"middle_east","regionName":"Middle East","stateId":null,"stateName":null,"latitude":33.3128057,"longitude":44.3614875},"locationType":"VIRTUAL","virtualLocationCountryId":null,"virtualLocationCountryName":null,"p2pAllowed":false,"streaming":false,"gatewaysCount":2,"ipsCount":6},{"locationDetails":{"cityId":"ifn","cityName":"Isfahan","countryId":"ir","countryName":"Iran","regionId":"middle_east","regionName":"Middle East","stateId":null,"stateName":null,"latitude":32.6546275,"longitude":51.6679826},"locationType":"VIRTUAL","virtualLocationCountryId":null,"virtualLocationCountryName":null,"p2pAllowed":false,"streaming":false,"gatewaysCount":2,"ipsCount":6},{"locationDetails":{"cityId":"rey","cityName":"Reykjavik","countryId":"is","countryName":"Iceland","regionId":"europe","regionName":"Europe","stateId":null,"stateName":null,"latitude":64.1265206,"longitude":-21.8174393},"locationType":"PHYSICAL","virtualLocationCountryId":null,"virtualLocationCountryName":null,"p2pAllowed":false,"streaming":false,"gatewaysCount":2,"ipsCount":27},{"locationDetails":{"cityId":"mil","cityName":"Milan","countryId":"it","countryName":"Italy","regionId":"europe","regionName":"Europe","stateId":null,"stateName":null,"latitude":45.4654219,"longitude":9.1859243},"locationType":"PHYSICAL","virtualLocationCountryId":null,"virtualLocationCountryName":null,"p2pAllowed":false,"streaming":false,"gatewaysCount":10,"ipsCount":135},{"locationDetails":{"cityId":"mbj","cityName":"Montego Bay","countryId":"jm","countryName":"Jamaica","regionId":"north_america","regionName":"North America","stateId":null,"stateName":null,"latitude":18.4762228,"longitude":-77.8938895},"locationType":"VIRTUAL","virtualLocationCountryId":null,"virtualLocationCountryName":null,"p2pAllowed":false,"streaming":false,"gatewaysCount":2,"ipsCount":6},{"locationDetails":{"cityId":"amm","cityName":"Amman","countryId":"jo","countryName":"Jordan","regionId":"middle_east","regionName":"Middle East","stateId":null,"stateName":null,"latitude":31.9453666,"longitude":35.9283716},"locationType":"VIRTUAL","virtualLocationCountryId":null,"virtualLocationCountryName":null,"p2pAllowed":false,"streaming":false,"gatewaysCount":2,"ipsCount":6},{"locationDetails":{"cityId":"tyo","cityName":"Tokyo","countryId":"jp","countryName":"Japan","regionId":"asia_pacific","regionName":"Asia Pacific","stateId":null,"stateName":null,"latitude":35.7090259,"longitude":139.7319925},"locationType":"PHYSICAL","virtualLocationCountryId":null,"virtualLocationCountryName":null,"p2pAllowed":false,"streaming":false,"gatewaysCount":4,"ipsCount":41},{"locationDetails":{"cityId":"nbo","cityName":"Nairobi","countryId":"ke","countryName":"Kenya","regionId":"africa","regionName":"Africa","stateId":null,"stateName":null,"latitude":-1.2920659,"longitude":36.8219462},"locationType":"VIRTUAL","virtualLocationCountryId":null,"virtualLocationCountryName":null,"p2pAllowed":false,"streaming":false,"gatewaysCount":2,"ipsCount":6},{"locationDetails":{"cityId":"fru","cityName":"Bishkek","countryId":"kg","countryName":"Kyrgyzstan","regionId":"asia_pacific","regionName":"Asia Pacific","stateId":null,"stateName":null,"latitude":42.8746212,"longitude":74.5697617},"locationType":"VIRTUAL","virtualLocationCountryId":null,"virtualLocationCountryName":null,"p2pAllowed":false,"streaming":false,"gatewaysCount":2,"ipsCount":6},{"locationDetails":{"cityId":"pnh","cityName":"Phnom Penh","countryId":"kh","countryName":"Cambodia","regionId":"asia_pacific","regionName":"Asia Pacific","stateId":null,"stateName":null,"latitude":11.5448729,"longitude":104.8921668},"locationType":"VIRTUAL","virtualLocationCountryId":null,"virtualLocationCountryName":null,"p2pAllowed":false,"streaming":false,"gatewaysCount":2,"ipsCount":6},{"locationDetails":{"cityId":"trw","cityName":"Umwa Village","countryId":"ki","countryName":"Kiribati","regionId":"asia_pacific","regionName":"Asia Pacific","stateId":null,"stateName":null,"latitude":1.386973,"longitude":173.1367893},"locationType":"VIRTUAL","virtualLocationCountryId":null,"virtualLocationCountryName":null,"p2pAllowed":false,"streaming":false,"gatewaysCount":2,"ipsCount":6},{"locationDetails":{"cityId":"mut","cityName":"Ouani","countryId":"km","countryName":"Comoros","regionId":"africa","regionName":"Africa","stateId":null,"stateName":null,"latitude":-12.1349328,"longitude":44.4252603},"locationType":"VIRTUAL","virtualLocationCountryId":null,"virtualLocationCountryName":null,"p2pAllowed":false,"streaming":false,"gatewaysCount":2,"ipsCount":6},{"locationDetails":{"cityId":"bas","cityName":"Basseterre","countryId":"kn","countryName":"Saint Kitts and Nevis","regionId":"north_america","regionName":"North America","stateId":null,"stateName":null,"latitude":17.3026058,"longitude":-62.7176924},"locationType":"VIRTUAL","virtualLocationCountryId":null,"virtualLocationCountryName":null,"p2pAllowed":false,"streaming":false,"gatewaysCount":2,"ipsCount":6},{"locationDetails":{"cityId":"fnj","cityName":"Manpo","countryId":"kp","countryName":"North Korea","regionId":"asia_pacific","regionName":"Asia Pacific","stateId":null,"stateName":null,"latitude":41.1545468,"longitude":126.2872939},"locationType":"VIRTUAL","virtualLocationCountryId":null,"virtualLocationCountryName":null,"p2pAllowed":false,"streaming":false,"gatewaysCount":2,"ipsCount":6},{"locationDetails":{"cityId":"sel","cityName":"Seoul","countryId":"kr","countryName":"South Korea","regionId":"asia_pacific","regionName":"Asia Pacific","stateId":null,"stateName":null,"latitude":37.566535,"longitude":126.9779692},"locationType":"PHYSICAL","virtualLocationCountryId":null,"virtualLocationCountryName":null,"p2pAllowed":false,"streaming":false,"gatewaysCount":6,"ipsCount":66},{"locationDetails":{"cityId":"kwi","cityName":"Kuwait City","countryId":"kw","countryName":"Kuwait","regionId":"middle_east","regionName":"Middle East","stateId":null,"stateName":null,"latitude":29.375859,"longitude":47.9774052},"locationType":"VIRTUAL","virtualLocationCountryId":null,"virtualLocationCountryName":null,"p2pAllowed":false,"streaming":false,"gatewaysCount":2,"ipsCount":6},{"locationDetails":{"cityId":"gec","cityName":"Spot Bay","countryId":"ky","countryName":"Cayman Islands","regionId":"north_america","regionName":"North America","stateId":null,"stateName":null,"latitude":19.7548369,"longitude":-79.7448946},"locationType":"VIRTUAL","virtualLocationCountryId":null,"virtualLocationCountryName":null,"p2pAllowed":false,"streaming":false,"gatewaysCount":2,"ipsCount":6},{"locationDetails":{"cityId":"shy","cityName":"Shymkent","countryId":"kz","countryName":"Kazakhstan","regionId":"asia_pacific","regionName":"Asia Pacific","stateId":null,"stateName":null,"latitude":42.3416847,"longitude":69.590101},"locationType":"VIRTUAL","virtualLocationCountryId":null,"virtualLocationCountryName":null,"p2pAllowed":false,"streaming":false,"gatewaysCount":2,"ipsCount":6},{"locationDetails":{"cityId":"thk","cityName":"Thakhek","countryId":"la","countryName":"Laos","regionId":"asia_pacific","regionName":"Asia Pacific","stateId":null,"stateName":null,"latitude":17.4030206,"longitude":104.8337879},"locationType":"VIRTUAL","virtualLocationCountryId":null,"virtualLocationCountryName":null,"p2pAllowed":false,"streaming":false,"gatewaysCount":2,"ipsCount":6},{"locationDetails":{"cityId":"bey","cityName":"Beirut","countryId":"lb","countryName":"Lebanon","regionId":"middle_east","regionName":"Middle East","stateId":null,"stateName":null,"latitude":33.8886106,"longitude":35.4954772},"locationType":"VIRTUAL","virtualLocationCountryId":null,"virtualLocationCountryName":null,"p2pAllowed":false,"streaming":false,"gatewaysCount":2,"ipsCount":6},{"locationDetails":{"cityId":"gri","cityName":"Gros Islet","countryId":"lc","countryName":"Saint Lucia","regionId":"north_america","regionName":"North America","stateId":null,"stateName":null,"latitude":14.0809976,"longitude":-60.9502376},"locationType":"VIRTUAL","virtualLocationCountryId":null,"virtualLocationCountryName":null,"p2pAllowed":false,"streaming":false,"gatewaysCount":2,"ipsCount":6},{"locationDetails":{"cityId":"vdz","cityName":"Vaduz","countryId":"li","countryName":"Liechtenstein","regionId":"europe","regionName":"Europe","stateId":null,"stateName":null,"latitude":47.1410303,"longitude":9.5209277},"locationType":"VIRTUAL","virtualLocationCountryId":null,"virtualLocationCountryName":null,"p2pAllowed":false,"streaming":false,"gatewaysCount":2,"ipsCount":6},{"locationDetails":{"cityId":"mor","cityName":"Moratuwa","countryId":"lk","countryName":"Sri Lanka","regionId":"asia_pacific","regionName":"Asia Pacific","stateId":null,"stateName":null,"latitude":6.7880706,"longitude":79.8912813},"locationType":"VIRTUAL","virtualLocationCountryId":null,"virtualLocationCountryName":null,"p2pAllowed":false,"streaming":false,"gatewaysCount":2,"ipsCount":6},{"locationDetails":{"cityId":"mlw","cityName":"Monrovia","countryId":"lr","countryName":"Liberia","regionId":"africa","regionName":"Africa","stateId":null,"stateName":null,"latitude":6.2907432,"longitude":-10.7605239},"locationType":"VIRTUAL","virtualLocationCountryId":null,"virtualLocationCountryName":null,"p2pAllowed":false,"streaming":false,"gatewaysCount":2,"ipsCount":6},{"locationDetails":{"cityId":"msu","cityName":"Peka","countryId":"ls","countryName":"Lesotho","regionId":"africa","regionName":"Africa","stateId":null,"stateName":null,"latitude":-28.9696758,"longitude":27.7666567},"locationType":"VIRTUAL","virtualLocationCountryId":null,"virtualLocationCountryName":null,"p2pAllowed":false,"streaming":false,"gatewaysCount":2,"ipsCount":6},{"locationDetails":{"cityId":"sqq","cityName":"Siauliai","countryId":"lt","countryName":"Lithuania","regionId":"europe","regionName":"Europe","stateId":null,"stateName":null,"latitude":55.9349085,"longitude":23.3136823},"locationType":"VIRTUAL","virtualLocationCountryId":null,"virtualLocationCountryName":null,"p2pAllowed":false,"streaming":false,"gatewaysCount":2,"ipsCount":6},{"locationDetails":{"cityId":"vno","cityName":"Vilnius","countryId":"lt","countryName":"Lithuania","regionId":"europe","regionName":"Europe","stateId":null,"stateName":null,"latitude":54.6871555,"longitude":25.2796514},"locationType":"PHYSICAL","virtualLocationCountryId":null,"virtualLocationCountryName":null,"p2pAllowed":false,"streaming":false,"gatewaysCount":2,"ipsCount":26},{"locationDetails":{"cityId":"lux","cityName":"Luxembourg","countryId":"lu","countryName":"Luxembourg","regionId":"europe","regionName":"Europe","stateId":null,"stateName":null,"latitude":49.815273,"longitude":6.129583},"locationType":"PHYSICAL","virtualLocationCountryId":null,"virtualLocationCountryName":null,"p2pAllowed":false,"streaming":false,"gatewaysCount":3,"ipsCount":39},{"locationDetails":{"cityId":"rix","cityName":"Riga","countryId":"lv","countryName":"Latvia","regionId":"europe","regionName":"Europe","stateId":null,"stateName":null,"latitude":56.9226554,"longitude":23.9733129},"locationType":"PHYSICAL","virtualLocationCountryId":null,"virtualLocationCountryName":null,"p2pAllowed":false,"streaming":false,"gatewaysCount":4,"ipsCount":32},{"locationDetails":{"cityId":"ltd","cityName":"Ghadames","countryId":"ly","countryName":"Libya","regionId":"africa","regionName":"Africa","stateId":null,"stateName":null,"latitude":30.1317637,"longitude":9.4950555},"locationType":"VIRTUAL","virtualLocationCountryId":null,"virtualLocationCountryName":null,"p2pAllowed":false,"streaming":false,"gatewaysCount":2,"ipsCount":6},{"locationDetails":{"cityId":"fez","cityName":"Fes","countryId":"ma","countryName":"Morocco","regionId":"africa","regionName":"Africa","stateId":null,"stateName":null,"latitude":34.0181246,"longitude":-5.0078451},"locationType":"VIRTUAL","virtualLocationCountryId":null,"virtualLocationCountryName":null,"p2pAllowed":false,"streaming":false,"gatewaysCount":2,"ipsCount":6},{"locationDetails":{"cityId":"mon","cityName":"Monaco","countryId":"mc","countryName":"Monaco","regionId":"europe","regionName":"Europe","stateId":null,"stateName":null,"latitude":43.7283597,"longitude":7.4133079},"locationType":"VIRTUAL","virtualLocationCountryId":null,"virtualLocationCountryName":null,"p2pAllowed":false,"streaming":false,"gatewaysCount":2,"ipsCount":6},{"locationDetails":{"cityId":"kiv","cityName":"Chisinau","countryId":"md","countryName":"Moldova","regionId":"europe","regionName":"Europe","stateId":null,"stateName":null,"latitude":47.0104529,"longitude":28.8638103},"locationType":"VIRTUAL","virtualLocationCountryId":null,"virtualLocationCountryName":null,"p2pAllowed":false,"streaming":false,"gatewaysCount":2,"ipsCount":6},{"locationDetails":{"cityId":"bcc","cityName":"Becici","countryId":"me","countryName":"Montenegro","regionId":"europe","regionName":"Europe","stateId":null,"stateName":null,"latitude":42.2841511,"longitude":18.8744587},"locationType":"VIRTUAL","virtualLocationCountryId":null,"virtualLocationCountryName":null,"p2pAllowed":false,"streaming":false,"gatewaysCount":2,"ipsCount":6},{"locationDetails":{"cityId":"die","cityName":"Antsiranana","countryId":"mg","countryName":"Madagascar","regionId":"africa","regionName":"Africa","stateId":null,"stateName":null,"latitude":-12.3231349,"longitude":49.2942833},"locationType":"VIRTUAL","virtualLocationCountryId":null,"virtualLocationCountryName":null,"p2pAllowed":false,"streaming":false,"gatewaysCount":2,"ipsCount":6},{"locationDetails":{"cityId":"skp","cityName":"Skopje","countryId":"mk","countryName":"North Macedonia","regionId":"europe","regionName":"Europe","stateId":null,"stateName":null,"latitude":41.9973462,"longitude":21.4279956},"locationType":"VIRTUAL","virtualLocationCountryId":null,"virtualLocationCountryName":null,"p2pAllowed":false,"streaming":false,"gatewaysCount":2,"ipsCount":6},{"locationDetails":{"cityId":"bko","cityName":"Bamako","countryId":"ml","countryName":"Mali","regionId":"africa","regionName":"Africa","stateId":null,"stateName":null,"latitude":12.6392316,"longitude":-8.0028892},"locationType":"VIRTUAL","virtualLocationCountryId":null,"virtualLocationCountryName":null,"p2pAllowed":false,"streaming":false,"gatewaysCount":2,"ipsCount":6},{"locationDetails":{"cityId":"yan","cityName":"Yangon","countryId":"mm","countryName":"Myanmar","regionId":"asia_pacific","regionName":"Asia Pacific","stateId":null,"stateName":null,"latitude":16.777544,"longitude":96.1404026},"locationType":"VIRTUAL","virtualLocationCountryId":null,"virtualLocationCountryName":null,"p2pAllowed":false,"streaming":false,"gatewaysCount":2,"ipsCount":6},{"locationDetails":{"cityId":"uln","cityName":"Suhbaatar","countryId":"mn","countryName":"Mongolia","regionId":"asia_pacific","regionName":"Asia Pacific","stateId":null,"stateName":null,"latitude":46.5653163,"longitude":113.5380836},"locationType":"VIRTUAL","virtualLocationCountryId":null,"virtualLocationCountryName":null,"p2pAllowed":false,"streaming":false,"gatewaysCount":2,"ipsCount":6},{"locationDetails":{"cityId":"mfm","cityName":"Macau","countryId":"mo","countryName":"Macau","regionId":"asia_pacific","regionName":"Asia Pacific","stateId":null,"stateName":null,"latitude":22.1846053,"longitude":113.5469971},"locationType":"VIRTUAL","virtualLocationCountryId":null,"virtualLocationCountryName":null,"p2pAllowed":false,"streaming":false,"gatewaysCount":2,"ipsCount":6},{"locationDetails":{"cityId":"nkc","cityName":"Nouakchott","countryId":"mr","countryName":"Mauritania","regionId":"africa","regionName":"Africa","stateId":null,"stateName":null,"latitude":18.0735299,"longitude":-15.9582372},"locationType":"VIRTUAL","virtualLocationCountryId":null,"virtualLocationCountryName":null,"p2pAllowed":false,"streaming":false,"gatewaysCount":2,"ipsCount":6},{"locationDetails":{"cityId":"ply","cityName":"Plymouth","countryId":"ms","countryName":"Montserrat","regionId":"north_america","regionName":"North America","stateId":null,"stateName":null,"latitude":16.706523,"longitude":-62.215738},"locationType":"VIRTUAL","virtualLocationCountryId":null,"virtualLocationCountryName":null,"p2pAllowed":false,"streaming":false,"gatewaysCount":2,"ipsCount":6},{"locationDetails":{"cityId":"cos","cityName":"Cospicua","countryId":"mt","countryName":"Malta","regionId":"europe","regionName":"Europe","stateId":null,"stateName":null,"latitude":35.8806753,"longitude":14.5218338},"locationType":"VIRTUAL","virtualLocationCountryId":null,"virtualLocationCountryName":null,"p2pAllowed":false,"streaming":false,"gatewaysCount":2,"ipsCount":6},{"locationDetails":{"cityId":"plu","cityName":"Port Louis","countryId":"mu","countryName":"Mauritius","regionId":"africa","regionName":"Africa","stateId":null,"stateName":null,"latitude":-20.1608912,"longitude":57.5012222},"locationType":"VIRTUAL","virtualLocationCountryId":null,"virtualLocationCountryName":null,"p2pAllowed":false,"streaming":false,"gatewaysCount":2,"ipsCount":6},{"locationDetails":{"cityId":"mle","cityName":"Male","countryId":"mv","countryName":"Maldives","regionId":"asia_pacific","regionName":"Asia Pacific","stateId":null,"stateName":null,"latitude":4.1754959,"longitude":73.5093474},"locationType":"VIRTUAL","virtualLocationCountryId":null,"virtualLocationCountryName":null,"p2pAllowed":false,"streaming":false,"gatewaysCount":2,"ipsCount":6},{"locationDetails":{"cityId":"llw","cityName":"Lilongwe","countryId":"mw","countryName":"Malawi","regionId":"africa","regionName":"Africa","stateId":null,"stateName":null,"latitude":-13.9626121,"longitude":33.7741195},"locationType":"VIRTUAL","virtualLocationCountryId":null,"virtualLocationCountryName":null,"p2pAllowed":false,"streaming":false,"gatewaysCount":2,"ipsCount":6},{"locationDetails":{"cityId":"mex","cityName":"Mexico City","countryId":"mx","countryName":"Mexico","regionId":"north_america","regionName":"North America","stateId":null,"stateName":null,"latitude":19.4326077,"longitude":-99.133208},"locationType":"PHYSICAL","virtualLocationCountryId":null,"virtualLocationCountryName":null,"p2pAllowed":false,"streaming":false,"gatewaysCount":4,"ipsCount":52},{"locationDetails":{"cityId":"jhb","cityName":"Johor Bahru","countryId":"my","countryName":"Malaysia","regionId":"asia_pacific","regionName":"Asia Pacific","stateId":null,"stateName":null,"latitude":1.492659,"longitude":103.7413591},"locationType":"PHYSICAL","virtualLocationCountryId":null,"virtualLocationCountryName":null,"p2pAllowed":false,"streaming":false,"gatewaysCount":4,"ipsCount":64},{"locationDetails":{"cityId":"pol","cityName":"Pemba","countryId":"mz","countryName":"Mozambique","regionId":"africa","regionName":"Africa","stateId":null,"stateName":null,"latitude":-12.9732026,"longitude":40.5178014},"locationType":"VIRTUAL","virtualLocationCountryId":null,"virtualLocationCountryName":null,"p2pAllowed":false,"streaming":false,"gatewaysCount":2,"ipsCount":6},{"locationDetails":{"cityId":"wdh","cityName":"Windhoek","countryId":"na","countryName":"Namibia","regionId":"africa","regionName":"Africa","stateId":null,"stateName":null,"latitude":-22.5608807,"longitude":17.0657549},"locationType":"VIRTUAL","virtualLocationCountryId":null,"virtualLocationCountryName":null,"p2pAllowed":false,"streaming":false,"gatewaysCount":2,"ipsCount":6},{"locationDetails":{"cityId":"nou","cityName":"Noumea","countryId":"nc","countryName":"New Caledonia","regionId":"asia_pacific","regionName":"Asia Pacific","stateId":null,"stateName":null,"latitude":-22.2558234,"longitude":166.4505243},"locationType":"VIRTUAL","virtualLocationCountryId":null,"virtualLocationCountryName":null,"p2pAllowed":false,"streaming":false,"gatewaysCount":2,"ipsCount":6},{"locationDetails":{"cityId":"nim","cityName":"Niamey","countryId":"ne","countryName":"Niger","regionId":"africa","regionName":"Africa","stateId":null,"stateName":null,"latitude":13.5115963,"longitude":2.1253854},"locationType":"VIRTUAL","virtualLocationCountryId":null,"virtualLocationCountryName":null,"p2pAllowed":false,"streaming":false,"gatewaysCount":2,"ipsCount":6},{"locationDetails":{"cityId":"nlk","cityName":"Kingston","countryId":"nf","countryName":"Norfolk Island","regionId":"asia_pacific","regionName":"Asia Pacific","stateId":null,"stateName":null,"latitude":-29.0563937,"longitude":167.959588},"locationType":"VIRTUAL","virtualLocationCountryId":null,"virtualLocationCountryName":null,"p2pAllowed":false,"streaming":false,"gatewaysCount":2,"ipsCount":6},{"locationDetails":{"cityId":"lag","cityName":"Lagos","countryId":"ng","countryName":"Nigeria","regionId":"africa","regionName":"Africa","stateId":null,"stateName":null,"latitude":6.5243793,"longitude":3.3792057},"locationType":"VIRTUAL","virtualLocationCountryId":null,"virtualLocationCountryName":null,"p2pAllowed":false,"streaming":false,"gatewaysCount":2,"ipsCount":6},{"locationDetails":{"cityId":"mga","cityName":"Managua","countryId":"ni","countryName":"Nicaragua","regionId":"north_america","regionName":"North America","stateId":null,"stateName":null,"latitude":12.1149926,"longitude":-86.2361744},"locationType":"VIRTUAL","virtualLocationCountryId":null,"virtualLocationCountryName":null,"p2pAllowed":false,"streaming":false,"gatewaysCount":2,"ipsCount":6},{"locationDetails":{"cityId":"ams","cityName":"Amsterdam","countryId":"nl","countryName":"Netherlands","regionId":"europe","regionName":"Europe","stateId":null,"stateName":null,"latitude":52.3702157,"longitude":4.8951679},"locationType":"PHYSICAL","virtualLocationCountryId":null,"virtualLocationCountryName":null,"p2pAllowed":true,"streaming":false,"gatewaysCount":5,"ipsCount":113},{"locationDetails":{"cityId":"ams","cityName":"Amsterdam","countryId":"nl","countryName":"Netherlands","regionId":"europe","regionName":"Europe","stateId":null,"stateName":null,"latitude":52.3702157,"longitude":4.8951679},"locationType":"VIRTUAL","virtualLocationCountryId":"us","virtualLocationCountryName":"USA","p2pAllowed":false,"streaming":false,"gatewaysCount":2,"ipsCount":16},{"locationDetails":{"cityId":"osl","cityName":"Oslo","countryId":"no","countryName":"Norway","regionId":"europe","regionName":"Europe","stateId":null,"stateName":null,"latitude":59.9074807,"longitude":10.7674603},"locationType":"PHYSICAL","virtualLocationCountryId":null,"virtualLocationCountryName":null,"p2pAllowed":false,"streaming":false,"gatewaysCount":14,"ipsCount":210},{"locationDetails":{"cityId":"jkr","cityName":"Janakpur","countryId":"np","countryName":"Nepal","regionId":"asia_pacific","regionName":"Asia Pacific","stateId":null,"stateName":null,"latitude":26.7271466,"longitude":85.9406745},"locationType":"VIRTUAL","virtualLocationCountryId":null,"virtualLocationCountryName":null,"p2pAllowed":false,"streaming":false,"gatewaysCount":2,"ipsCount":6},{"locationDetails":{"cityId":"yrn","cityName":"Anabar","countryId":"nr","countryName":"Nauru","regionId":"asia_pacific","regionName":"Asia Pacific","stateId":null,"stateName":null,"latitude":-0.5133517,"longitude":166.9484624},"locationType":"VIRTUAL","virtualLocationCountryId":null,"virtualLocationCountryName":null,"p2pAllowed":false,"streaming":false,"gatewaysCount":2,"ipsCount":6},{"locationDetails":{"cityId":"alo","cityName":"Alofi","countryId":"nu","countryName":"Niue","regionId":"asia_pacific","regionName":"Asia Pacific","stateId":null,"stateName":null,"latitude":-19.0553711,"longitude":-169.9178709},"locationType":"VIRTUAL","virtualLocationCountryId":null,"virtualLocationCountryName":null,"p2pAllowed":false,"streaming":false,"gatewaysCount":2,"ipsCount":6},{"locationDetails":{"cityId":"akl","cityName":"Auckland","countryId":"nz","countryName":"New Zealand","regionId":"asia_pacific","regionName":"Asia Pacific","stateId":null,"stateName":null,"latitude":-36.8484597,"longitude":174.7633315},"locationType":"PHYSICAL","virtualLocationCountryId":null,"virtualLocationCountryName":null,"p2pAllowed":false,"streaming":false,"gatewaysCount":4,"ipsCount":44},{"locationDetails":{"cityId":"sll","cityName":"Salalah","countryId":"om","countryName":"Oman","regionId":"middle_east","regionName":"Middle East","stateId":null,"stateName":null,"latitude":17.0506675,"longitude":54.1065864},"locationType":"VIRTUAL","virtualLocationCountryId":null,"virtualLocationCountryName":null,"p2pAllowed":false,"streaming":false,"gatewaysCount":2,"ipsCount":6},{"locationDetails":{"cityId":"pty","cityName":"Panama City","countryId":"pa","countryName":"Panama","regionId":"south_america","regionName":"South America","stateId":null,"stateName":null,"latitude":8.9823792,"longitude":-79.5198696},"locationType":"VIRTUAL","virtualLocationCountryId":null,"virtualLocationCountryName":null,"p2pAllowed":false,"streaming":false,"gatewaysCount":2,"ipsCount":6},{"locationDetails":{"cityId":"ayp","cityName":"Cusco","countryId":"pe","countryName":"Peru","regionId":"south_america","regionName":"South America","stateId":null,"stateName":null,"latitude":-13.53195,"longitude":-71.9674626},"locationType":"VIRTUAL","virtualLocationCountryId":null,"virtualLocationCountryName":null,"p2pAllowed":false,"streaming":false,"gatewaysCount":2,"ipsCount":6},{"locationDetails":{"cityId":"gur","cityName":"Alotau","countryId":"pg","countryName":"Papua New Guinea","regionId":"asia_pacific","regionName":"Asia Pacific","stateId":null,"stateName":null,"latitude":-10.3157027,"longitude":150.4587795},"locationType":"VIRTUAL","virtualLocationCountryId":null,"virtualLocationCountryName":null,"p2pAllowed":false,"streaming":false,"gatewaysCount":2,"ipsCount":6},{"locationDetails":{"cityId":"bag","cityName":"Baguio","countryId":"ph","countryName":"Philippines","regionId":"asia_pacific","regionName":"Asia Pacific","stateId":null,"stateName":null,"latitude":16.4023332,"longitude":120.5960071},"locationType":"VIRTUAL","virtualLocationCountryId":null,"virtualLocationCountryName":null,"p2pAllowed":false,"streaming":false,"gatewaysCount":4,"ipsCount":11},{"locationDetails":{"cityId":"khi","cityName":"Karachi","countryId":"pk","countryName":"Pakistan","regionId":"asia_pacific","regionName":"Asia Pacific","stateId":null,"stateName":null,"latitude":24.8614622,"longitude":67.0099388},"locationType":"VIRTUAL","virtualLocationCountryId":null,"virtualLocationCountryName":null,"p2pAllowed":false,"streaming":false,"gatewaysCount":2,"ipsCount":6},{"locationDetails":{"cityId":"waw","cityName":"Warsaw","countryId":"pl","countryName":"Poland","regionId":"europe","regionName":"Europe","stateId":null,"stateName":null,"latitude":52.2296756,"longitude":21.0122287},"locationType":"PHYSICAL","virtualLocationCountryId":null,"virtualLocationCountryName":null,"p2pAllowed":false,"streaming":false,"gatewaysCount":6,"ipsCount":66},{"locationDetails":{"cityId":"fsp","cityName":"Saint-Pierre","countryId":"pm","countryName":"Saint Pierre and Miquelon","regionId":"north_america","regionName":"North America","stateId":null,"stateName":null,"latitude":46.7758459,"longitude":-56.1806363},"locationType":"VIRTUAL","virtualLocationCountryId":null,"virtualLocationCountryName":null,"p2pAllowed":false,"streaming":false,"gatewaysCount":2,"ipsCount":6},{"locationDetails":{"cityId":"pna","cityName":"Adamstown","countryId":"pn","countryName":"Pitcairn Islands","regionId":"asia_pacific","regionName":"Asia Pacific","stateId":null,"stateName":null,"latitude":-25.0662897,"longitude":-130.1004636},"locationType":"VIRTUAL","virtualLocationCountryId":null,"virtualLocationCountryName":null,"p2pAllowed":false,"streaming":false,"gatewaysCount":2,"ipsCount":6},{"locationDetails":{"cityId":"sju","cityName":"San Juan","countryId":"pr","countryName":"Puerto Rico","regionId":"north_america","regionName":"North America","stateId":null,"stateName":null,"latitude":18.4655394,"longitude":-66.1057355},"locationType":"VIRTUAL","virtualLocationCountryId":null,"virtualLocationCountryName":null,"p2pAllowed":false,"streaming":false,"gatewaysCount":2,"ipsCount":6},{"locationDetails":{"cityId":"btl","cityName":"Bethlehem","countryId":"ps","countryName":"Palestine","regionId":"middle_east","regionName":"Middle East","stateId":null,"stateName":null,"latitude":40.6895856,"longitude":-75.391475},"locationType":"VIRTUAL","virtualLocationCountryId":null,"virtualLocationCountryName":null,"p2pAllowed":false,"streaming":false,"gatewaysCount":2,"ipsCount":6},{"locationDetails":{"cityId":"lis","cityName":"Leiria","countryId":"pt","countryName":"Portugal","regionId":"europe","regionName":"Europe","stateId":null,"stateName":null,"latitude":39.7495331,"longitude":-8.807683},"locationType":"PHYSICAL","virtualLocationCountryId":null,"virtualLocationCountryName":null,"p2pAllowed":false,"streaming":false,"gatewaysCount":9,"ipsCount":119},{"locationDetails":{"cityId":"mkk","cityName":"Melekeok","countryId":"pw","countryName":"Palau","regionId":"asia_pacific","regionName":"Asia Pacific","stateId":null,"stateName":null,"latitude":7.4951158,"longitude":134.6336896},"locationType":"VIRTUAL","virtualLocationCountryId":null,"virtualLocationCountryName":null,"p2pAllowed":false,"streaming":false,"gatewaysCount":2,"ipsCount":6},{"locationDetails":{"cityId":"asu","cityName":"Boqueron","countryId":"py","countryName":"Paraguay","regionId":"south_america","regionName":"South America","stateId":null,"stateName":null,"latitude":-21.7449254,"longitude":-60.9540073},"locationType":"VIRTUAL","virtualLocationCountryId":null,"virtualLocationCountryName":null,"p2pAllowed":false,"streaming":false,"gatewaysCount":2,"ipsCount":6},{"locationDetails":{"cityId":"doh","cityName":"Doha","countryId":"qa","countryName":"Qatar","regionId":"middle_east","regionName":"Middle East","stateId":null,"stateName":null,"latitude":25.2854473,"longitude":51.5310398},"locationType":"VIRTUAL","virtualLocationCountryId":null,"virtualLocationCountryName":null,"p2pAllowed":false,"streaming":false,"gatewaysCount":2,"ipsCount":6},{"locationDetails":{"cityId":"buh","cityName":"Bucharest","countryId":"ro","countryName":"Romania","regionId":"europe","regionName":"Europe","stateId":null,"stateName":null,"latitude":44.4267674,"longitude":26.1025384},"locationType":"VIRTUAL","virtualLocationCountryId":null,"virtualLocationCountryName":null,"p2pAllowed":false,"streaming":false,"gatewaysCount":2,"ipsCount":6},{"locationDetails":{"cityId":"beg","cityName":"Belgrade","countryId":"rs","countryName":"Serbia","regionId":"europe","regionName":"Europe","stateId":null,"stateName":null,"latitude":44.786568,"longitude":20.4489216},"locationType":"VIRTUAL","virtualLocationCountryId":null,"virtualLocationCountryName":null,"p2pAllowed":false,"streaming":false,"gatewaysCount":2,"ipsCount":6},{"locationDetails":{"cityId":"kgl","cityName":"Kigali","countryId":"rw","countryName":"Rwanda","regionId":"africa","regionName":"Africa","stateId":null,"stateName":null,"latitude":-1.9705786,"longitude":30.1044288},"locationType":"VIRTUAL","virtualLocationCountryId":null,"virtualLocationCountryName":null,"p2pAllowed":false,"streaming":false,"gatewaysCount":2,"ipsCount":6},{"locationDetails":{"cityId":"riy","cityName":"Riyadh","countryId":"sa","countryName":"Saudi Arabia","regionId":"middle_east","regionName":"Middle East","stateId":null,"stateName":null,"latitude":24.7992521,"longitude":46.8683487},"locationType":"VIRTUAL","virtualLocationCountryId":null,"virtualLocationCountryName":null,"p2pAllowed":false,"streaming":false,"gatewaysCount":2,"ipsCount":6},{"locationDetails":{"cityId":"hir","cityName":"Honiara","countryId":"sb","countryName":"Solomon Islands","regionId":"asia_pacific","regionName":"Asia Pacific","stateId":null,"stateName":null,"latitude":-9.4456381,"longitude":159.9728999},"locationType":"VIRTUAL","virtualLocationCountryId":null,"virtualLocationCountryName":null,"p2pAllowed":false,"streaming":false,"gatewaysCount":2,"ipsCount":6},{"locationDetails":{"cityId":"krt","cityName":"Khartoum","countryId":"sd","countryName":"Sudan","regionId":"africa","regionName":"Africa","stateId":null,"stateName":null,"latitude":15.5006544,"longitude":32.5598994},"locationType":"VIRTUAL","virtualLocationCountryId":null,"virtualLocationCountryName":null,"p2pAllowed":false,"streaming":false,"gatewaysCount":2,"ipsCount":6},{"locationDetails":{"cityId":"sto","cityName":"Stockholm","countryId":"se","countryName":"Sweden","regionId":"europe","regionName":"Europe","stateId":null,"stateName":null,"latitude":59.3092328,"longitude":18.2705343},"locationType":"PHYSICAL","virtualLocationCountryId":null,"virtualLocationCountryName":null,"p2pAllowed":false,"streaming":false,"gatewaysCount":13,"ipsCount":104},{"locationDetails":{"cityId":"sin","cityName":"Singapore","countryId":"sg","countryName":"Republic of Singapore","regionId":"asia_pacific","regionName":"Asia Pacific","stateId":null,"stateName":null,"latitude":1.352083,"longitude":103.819836},"locationType":"PHYSICAL","virtualLocationCountryId":null,"virtualLocationCountryName":null,"p2pAllowed":false,"streaming":false,"gatewaysCount":5,"ipsCount":65},{"locationDetails":{"cityId":"sin","cityName":"Singapore","countryId":"sg","countryName":"Republic of Singapore","regionId":"asia_pacific","regionName":"Asia Pacific","stateId":null,"stateName":null,"latitude":1.352083,"longitude":103.819836},"locationType":"VIRTUAL","virtualLocationCountryId":"de","virtualLocationCountryName":"Germany","p2pAllowed":false,"streaming":false,"gatewaysCount":2,"ipsCount":32},{"locationDetails":{"cityId":"sin","cityName":"Singapore","countryId":"sg","countryName":"Republic of Singapore","regionId":"asia_pacific","regionName":"Asia Pacific","stateId":null,"stateName":null,"latitude":1.352083,"longitude":103.819836},"locationType":"VIRTUAL","virtualLocationCountryId":"fr","virtualLocationCountryName":"France","p2pAllowed":false,"streaming":false,"gatewaysCount":2,"ipsCount":32},{"locationDetails":{"cityId":"sin","cityName":"Singapore","countryId":"sg","countryName":"Republic of Singapore","regionId":"asia_pacific","regionName":"Asia Pacific","stateId":null,"stateName":null,"latitude":1.352083,"longitude":103.819836},"locationType":"VIRTUAL","virtualLocationCountryId":"gb","virtualLocationCountryName":"UK","p2pAllowed":false,"streaming":false,"gatewaysCount":4,"ipsCount":64},{"locationDetails":{"cityId":"sin","cityName":"Singapore","countryId":"sg","countryName":"Republic of Singapore","regionId":"asia_pacific","regionName":"Asia Pacific","stateId":null,"stateName":null,"latitude":1.352083,"longitude":103.819836},"locationType":"VIRTUAL","virtualLocationCountryId":"us","virtualLocationCountryName":"USA","p2pAllowed":false,"streaming":false,"gatewaysCount":6,"ipsCount":96},{"locationDetails":{"cityId":"tdc","cityName":"Tristan da Cunha","countryId":"sh","countryName":"Saint Helena","regionId":"africa","regionName":"Africa","stateId":null,"stateName":null,"latitude":-37.1052489,"longitude":-12.2776838},"locationType":"VIRTUAL","virtualLocationCountryId":null,"virtualLocationCountryName":null,"p2pAllowed":false,"streaming":false,"gatewaysCount":2,"ipsCount":6},{"locationDetails":{"cityId":"vrh","cityName":"Vrhnika","countryId":"si","countryName":"Slovenia","regionId":"europe","regionName":"Europe","stateId":null,"stateName":null,"latitude":45.966583,"longitude":14.2973873},"locationType":"VIRTUAL","virtualLocationCountryId":null,"virtualLocationCountryName":null,"p2pAllowed":false,"streaming":false,"gatewaysCount":2,"ipsCount":6},{"locationDetails":{"cityId":"lyr","cityName":"Longyearbyen","countryId":"sj","countryName":"Svalbard and Jan Mayen","regionId":"europe","regionName":"Europe","stateId":null,"stateName":null,"latitude":78.2231722,"longitude":15.626723},"locationType":"VIRTUAL","virtualLocationCountryId":null,"virtualLocationCountryName":null,"p2pAllowed":false,"streaming":false,"gatewaysCount":2,"ipsCount":6},{"locationDetails":{"cityId":"bts","cityName":"Bratislava","countryId":"sk","countryName":"Slovakia","regionId":"europe","regionName":"Europe","stateId":null,"stateName":null,"latitude":48.1485965,"longitude":17.1077477},"locationType":"VIRTUAL","virtualLocationCountryId":null,"virtualLocationCountryName":null,"p2pAllowed":false,"streaming":false,"gatewaysCount":2,"ipsCount":6},{"locationDetails":{"cityId":"fna","cityName":"Freetown","countryId":"sl","countryName":"Sierra Leone","regionId":"africa","regionName":"Africa","stateId":null,"stateName":null,"latitude":8.4656765,"longitude":-13.2317225},"locationType":"VIRTUAL","virtualLocationCountryId":null,"virtualLocationCountryName":null,"p2pAllowed":false,"streaming":false,"gatewaysCount":2,"ipsCount":6},{"locationDetails":{"cityId":"sai","cityName":"San Marino","countryId":"sm","countryName":"San Marino","regionId":"europe","regionName":"Europe","stateId":null,"stateName":null,"latitude":43.94236,"longitude":12.457777},"locationType":"VIRTUAL","virtualLocationCountryId":null,"virtualLocationCountryName":null,"p2pAllowed":false,"streaming":false,"gatewaysCount":2,"ipsCount":6},{"locationDetails":{"cityId":"dkr","cityName":"Dakar","countryId":"sn","countryName":"Senegal","regionId":"africa","regionName":"Africa","stateId":null,"stateName":null,"latitude":14.7645042,"longitude":-17.3660286},"locationType":"VIRTUAL","virtualLocationCountryId":null,"virtualLocationCountryName":null,"p2pAllowed":false,"streaming":false,"gatewaysCount":2,"ipsCount":6},{"locationDetails":{"cityId":"mgq","cityName":"Afgooye","countryId":"so","countryName":"Somalia","regionId":"africa","regionName":"Africa","stateId":null,"stateName":null,"latitude":2.1426226,"longitude":45.1167167},"locationType":"VIRTUAL","virtualLocationCountryId":null,"virtualLocationCountryName":null,"p2pAllowed":false,"streaming":false,"gatewaysCount":2,"ipsCount":6},{"locationDetails":{"cityId":"pbm","cityName":"Paramaribo","countryId":"sr","countryName":"Suriname","regionId":"south_america","regionName":"South America","stateId":null,"stateName":null,"latitude":5.8520355,"longitude":-55.2038278},"locationType":"VIRTUAL","virtualLocationCountryId":null,"virtualLocationCountryName":null,"p2pAllowed":false,"streaming":false,"gatewaysCount":2,"ipsCount":6},{"locationDetails":{"cityId":"tms","cityName":"Sao Tome","countryId":"st","countryName":"Sao Tome and Principe","regionId":"africa","regionName":"Africa","stateId":null,"stateName":null,"latitude":0.3301924,"longitude":6.733343},"locationType":"VIRTUAL","virtualLocationCountryId":null,"virtualLocationCountryName":null,"p2pAllowed":false,"streaming":false,"gatewaysCount":2,"ipsCount":6},{"locationDetails":{"cityId":"smg","cityName":"San Miguel","countryId":"sv","countryName":"El Salvador","regionId":"south_america","regionName":"South America","stateId":null,"stateName":null,"latitude":13.4792922,"longitude":-88.1779182},"locationType":"VIRTUAL","virtualLocationCountryId":null,"virtualLocationCountryName":null,"p2pAllowed":false,"streaming":false,"gatewaysCount":2,"ipsCount":6},{"locationDetails":{"cityId":"dam","cityName":"Ad Darah","countryId":"sy","countryName":"Syria","regionId":"middle_east","regionName":"Middle East","stateId":null,"stateName":null,"latitude":32.7181105,"longitude":36.4066696},"locationType":"VIRTUAL","virtualLocationCountryId":null,"virtualLocationCountryName":null,"p2pAllowed":false,"streaming":false,"gatewaysCount":2,"ipsCount":6},{"locationDetails":{"cityId":"mts","cityName":"Manzini","countryId":"sz","countryName":"Eswatini","regionId":"africa","regionName":"Africa","stateId":null,"stateName":null,"latitude":-26.5081999,"longitude":31.3713164},"locationType":"VIRTUAL","virtualLocationCountryId":null,"virtualLocationCountryName":null,"p2pAllowed":false,"streaming":false,"gatewaysCount":2,"ipsCount":6},{"locationDetails":{"cityId":"gdt","cityName":"Balfour Town","countryId":"tc","countryName":"Turks and Caicos Islands","regionId":"north_america","regionName":"North America","stateId":null,"stateName":null,"latitude":21.3197814,"longitude":-71.2116875},"locationType":"VIRTUAL","virtualLocationCountryId":null,"virtualLocationCountryName":null,"p2pAllowed":false,"streaming":false,"gatewaysCount":2,"ipsCount":6},{"locationDetails":{"cityId":"ndj","cityName":"N'Djamena","countryId":"td","countryName":"Chad","regionId":"africa","regionName":"Africa","stateId":null,"stateName":null,"latitude":14.7549412,"longitude":16.5008644},"locationType":"VIRTUAL","virtualLocationCountryId":null,"virtualLocationCountryName":null,"p2pAllowed":false,"streaming":false,"gatewaysCount":2,"ipsCount":6},{"locationDetails":{"cityId":"lfw","cityName":"Lome","countryId":"tg","countryName":"Togo","regionId":"africa","regionName":"Africa","stateId":null,"stateName":null,"latitude":6.1724969,"longitude":1.2313618},"locationType":"VIRTUAL","virtualLocationCountryId":null,"virtualLocationCountryName":null,"p2pAllowed":false,"streaming":false,"gatewaysCount":2,"ipsCount":6},{"locationDetails":{"cityId":"bkk","cityName":"Bangkok","countryId":"th","countryName":"Thailand","regionId":"asia_pacific","regionName":"Asia Pacific","stateId":null,"stateName":null,"latitude":13.7563309,"longitude":100.5017651},"locationType":"VIRTUAL","virtualLocationCountryId":null,"virtualLocationCountryName":null,"p2pAllowed":false,"streaming":false,"gatewaysCount":2,"ipsCount":6},{"locationDetails":{"cityId":"dyu","cityName":"Dushanbe","countryId":"tj","countryName":"Tajikistan","regionId":"asia_pacific","regionName":"Asia Pacific","stateId":null,"stateName":null,"latitude":38.5597722,"longitude":68.7870384},"locationType":"VIRTUAL","virtualLocationCountryId":null,"virtualLocationCountryName":null,"p2pAllowed":false,"streaming":false,"gatewaysCount":2,"ipsCount":6},{"locationDetails":{"cityId":"afu","cityName":"Atafu","countryId":"tk","countryName":"Tokelau","regionId":"asia_pacific","regionName":"Asia Pacific","stateId":null,"stateName":null,"latitude":-8.5565479,"longitude":-172.472568},"locationType":"VIRTUAL","virtualLocationCountryId":null,"virtualLocationCountryName":null,"p2pAllowed":false,"streaming":false,"gatewaysCount":2,"ipsCount":6},{"locationDetails":{"cityId":"asb","cityName":"Ashgabat","countryId":"tm","countryName":"Turkmenistan","regionId":"asia_pacific","regionName":"Asia Pacific","stateId":null,"stateName":null,"latitude":37.9600766,"longitude":58.3260629},"locationType":"VIRTUAL","virtualLocationCountryId":null,"virtualLocationCountryName":null,"p2pAllowed":false,"streaming":false,"gatewaysCount":2,"ipsCount":6},{"locationDetails":{"cityId":"mah","cityName":"Mahdia","countryId":"tn","countryName":"Tunisia","regionId":"africa","regionName":"Africa","stateId":null,"stateName":null,"latitude":35.5024461,"longitude":11.045721},"locationType":"VIRTUAL","virtualLocationCountryId":null,"virtualLocationCountryName":null,"p2pAllowed":false,"streaming":false,"gatewaysCount":2,"ipsCount":6},{"locationDetails":{"cityId":"tbu","cityName":"Nukualofa","countryId":"to","countryName":"Tonga","regionId":"asia_pacific","regionName":"Asia Pacific","stateId":null,"stateName":null,"latitude":-21.1393418,"longitude":-175.204947},"locationType":"VIRTUAL","virtualLocationCountryId":null,"virtualLocationCountryName":null,"p2pAllowed":false,"streaming":false,"gatewaysCount":2,"ipsCount":6},{"locationDetails":{"cityId":"ist","cityName":"Istanbul","countryId":"tr","countryName":"Turkey","regionId":"middle_east","regionName":"Middle East","stateId":null,"stateName":null,"latitude":41.0082376,"longitude":28.9783589},"locationType":"PHYSICAL","virtualLocationCountryId":null,"virtualLocationCountryName":null,"p2pAllowed":false,"streaming":false,"gatewaysCount":3,"ipsCount":39},{"locationDetails":{"cityId":"sfe","cityName":"San Fernando","countryId":"tt","countryName":"Trinidad and Tobago","regionId":"south_america","regionName":"South America","stateId":null,"stateName":null,"latitude":10.2905853,"longitude":-61.4493842},"locationType":"VIRTUAL","virtualLocationCountryId":null,"virtualLocationCountryName":null,"p2pAllowed":false,"streaming":false,"gatewaysCount":2,"ipsCount":6},{"locationDetails":{"cityId":"fun","cityName":"Vaitupu","countryId":"tv","countryName":"Tuvalu","regionId":"asia_pacific","regionName":"Asia Pacific","stateId":null,"stateName":null,"latitude":-7.4767327,"longitude":178.6747675},"locationType":"VIRTUAL","virtualLocationCountryId":null,"virtualLocationCountryName":null,"p2pAllowed":false,"streaming":false,"gatewaysCount":2,"ipsCount":6},{"locationDetails":{"cityId":"tpe","cityName":"Taipei","countryId":"tw","countryName":"Taiwan","regionId":"asia_pacific","regionName":"Asia Pacific","stateId":null,"stateName":null,"latitude":25.0796514,"longitude":121.234217},"locationType":"PHYSICAL","virtualLocationCountryId":null,"virtualLocationCountryName":null,"p2pAllowed":false,"streaming":false,"gatewaysCount":8,"ipsCount":88},{"locationDetails":{"cityId":"ark","cityName":"Arusha","countryId":"tz","countryName":"Tanzania","regionId":"africa","regionName":"Africa","stateId":null,"stateName":null,"latitude":-3.3869254,"longitude":36.6829927},"locationType":"VIRTUAL","virtualLocationCountryId":null,"virtualLocationCountryName":null,"p2pAllowed":false,"streaming":false,"gatewaysCount":2,"ipsCount":6},{"locationDetails":{"cityId":"iev","cityName":"Kyiv","countryId":"ua","countryName":"Ukraine","regionId":"europe","regionName":"Europe","stateId":null,"stateName":null,"latitude":50.4455444,"longitude":30.514226},"locationType":"VIRTUAL","virtualLocationCountryId":null,"virtualLocationCountryName":null,"p2pAllowed":false,"streaming":false,"gatewaysCount":2,"ipsCount":30},{"locationDetails":{"cityId":"ods","cityName":"Odessa","countryId":"ua","countryName":"Ukraine","regionId":"europe","regionName":"Europe","stateId":null,"stateName":null,"latitude":46.482526,"longitude":30.7233095},"locationType":"VIRTUAL","virtualLocationCountryId":null,"virtualLocationCountryName":null,"p2pAllowed":false,"streaming":false,"gatewaysCount":2,"ipsCount":6},{"locationDetails":{"cityId":"kla","cityName":"Kampala","countryId":"ug","countryName":"Uganda","regionId":"africa","regionName":"Africa","stateId":null,"stateName":null,"latitude":0.3475964,"longitude":32.5825197},"locationType":"VIRTUAL","virtualLocationCountryId":null,"virtualLocationCountryName":null,"p2pAllowed":false,"streaming":false,"gatewaysCount":2,"ipsCount":6},{"locationDetails":{"cityId":"anc","cityName":"Anchorage","countryId":"us","countryName":"USA","regionId":"north_america","regionName":"North America","stateId":"ak","stateName":"Alaska","latitude":61.2180556,"longitude":-149.9002778},"locationType":"VIRTUAL","virtualLocationCountryId":null,"virtualLocationCountryName":null,"p2pAllowed":false,"streaming":false,"gatewaysCount":2,"ipsCount":6},{"locationDetails":{"cityId":"mgm","cityName":"Montgomery","countryId":"us","countryName":"USA","regionId":"north_america","regionName":"North America","stateId":"al","stateName":"Alabama","latitude":32.3668052,"longitude":-86.2999689},"locationType":"VIRTUAL","virtualLocationCountryId":null,"virtualLocationCountryName":null,"p2pAllowed":false,"streaming":false,"gatewaysCount":4,"ipsCount":22},{"locationDetails":{"cityId":"ago","cityName":"Magnolia","countryId":"us","countryName":"USA","regionId":"north_america","regionName":"North America","stateId":"ar","stateName":"Arkansas","latitude":33.2670725,"longitude":-93.239334},"locationType":"VIRTUAL","virtualLocationCountryId":null,"virtualLocationCountryName":null,"p2pAllowed":false,"streaming":false,"gatewaysCount":3,"ipsCount":9},{"locationDetails":{"cityId":"phx","cityName":"Phoenix","countryId":"us","countryName":"USA","regionId":"north_america","regionName":"North America","stateId":"az","stateName":"Arizona","latitude":33.4483771,"longitude":-112.0740373},"locationType":"PHYSICAL","virtualLocationCountryId":null,"virtualLocationCountryName":null,"p2pAllowed":false,"streaming":false,"gatewaysCount":29,"ipsCount":342},{"locationDetails":{"cityId":"lax","cityName":"Los Angeles","countryId":"us","countryName":"USA","regionId":"north_america","regionName":"North America","stateId":"ca","stateName":"California","latitude":34.0522342,"longitude":-118.2436849},"locationType":"PHYSICAL","virtualLocationCountryId":null,"virtualLocationCountryName":null,"p2pAllowed":false,"streaming":false,"gatewaysCount":15,"ipsCount":210},{"locationDetails":{"cityId":"sjc","cityName":"San Jose","countryId":"us","countryName":"USA","regionId":"north_america","regionName":"North America","stateId":"ca","stateName":"California","latitude":37.3382082,"longitude":-121.8863286},"locationType":"PHYSICAL","virtualLocationCountryId":null,"virtualLocationCountryName":null,"p2pAllowed":false,"streaming":false,"gatewaysCount":12,"ipsCount":145},{"locationDetails":{"cityId":"tbl","cityName":"Trumbull","countryId":"us","countryName":"USA","regionId":"north_america","regionName":"North America","stateId":"ct","stateName":"Connecticut","latitude":41.2428563,"longitude":-73.2006639},"locationType":"VIRTUAL","virtualLocationCountryId":null,"virtualLocationCountryName":null,"p2pAllowed":false,"streaming":false,"gatewaysCount":3,"ipsCount":19},{"locationDetails":{"cityId":"was","cityName":"Washington DC","countryId":"us","countryName":"USA","regionId":"north_america","regionName":"North America","stateId":"dc","stateName":"District of Columbia","latitude":38.9071923,"longitude":-77.0368707},"locationType":"PHYSICAL","virtualLocationCountryId":null,"virtualLocationCountryName":null,"p2pAllowed":false,"streaming":false,"gatewaysCount":21,"ipsCount":302},{"locationDetails":{"cityId":"ilg","cityName":"Wilmington","countryId":"us","countryName":"USA","regionId":"north_america","regionName":"North America","stateId":"de","stateName":"Delaware","latitude":39.7390721,"longitude":-75.5397878},"locationType":"VIRTUAL","virtualLocationCountryId":null,"virtualLocationCountryName":null,"p2pAllowed":false,"streaming":false,"gatewaysCount":2,"ipsCount":6},{"locationDetails":{"cityId":"jax","cityName":"Jacksonville","countryId":"us","countryName":"USA","regionId":"north_america","regionName":"North America","stateId":"fl","stateName":"Florida","latitude":30.3321838,"longitude":-81.655651},"locationType":"PHYSICAL","virtualLocationCountryId":null,"virtualLocationCountryName":null,"p2pAllowed":false,"streaming":false,"gatewaysCount":6,"ipsCount":90},{"locationDetails":{"cityId":"mia","cityName":"Miami","countryId":"us","countryName":"USA","regionId":"north_america","regionName":"North America","stateId":"fl","stateName":"Florida","latitude":25.7616798,"longitude":-80.1917902},"locationType":"PHYSICAL","virtualLocationCountryId":null,"virtualLocationCountryName":null,"p2pAllowed":true,"streaming":true,"gatewaysCount":9,"ipsCount":112},{"locationDetails":{"cityId":"atl","cityName":"Atlanta","countryId":"us","countryName":"USA","regionId":"north_america","regionName":"North America","stateId":"ga","stateName":"Georgia","latitude":33.7489954,"longitude":-84.3879824},"locationType":"PHYSICAL","virtualLocationCountryId":null,"virtualLocationCountryName":null,"p2pAllowed":false,"streaming":false,"gatewaysCount":15,"ipsCount":199},{"locationDetails":{"cityId":"hnl","cityName":"Honolulu","countryId":"us","countryName":"USA","regionId":"north_america","regionName":"North America","stateId":"hi","stateName":"Hawaii","latitude":21.3069444,"longitude":-157.8583333},"locationType":"PHYSICAL","virtualLocationCountryId":null,"virtualLocationCountryName":null,"p2pAllowed":false,"streaming":false,"gatewaysCount":4,"ipsCount":39},{"locationDetails":{"cityId":"dsm","cityName":"Des Moines","countryId":"us","countryName":"USA","regionId":"north_america","regionName":"North America","stateId":"ia","stateName":"Iowa","latitude":41.6005448,"longitude":-93.6091064},"locationType":"VIRTUAL","virtualLocationCountryId":null,"virtualLocationCountryName":null,"p2pAllowed":false,"streaming":false,"gatewaysCount":4,"ipsCount":12},{"locationDetails":{"cityId":"ida","cityName":"Idaho Falls","countryId":"us","countryName":"USA","regionId":"north_america","regionName":"North America","stateId":"id","stateName":"Idaho","latitude":43.4916514,"longitude":-112.0339645},"locationType":"VIRTUAL","virtualLocationCountryId":null,"virtualLocationCountryName":null,"p2pAllowed":false,"streaming":false,"gatewaysCount":3,"ipsCount":9},{"locationDetails":{"cityId":"chi","cityName":"Chicago","countryId":"us","countryName":"USA","regionId":"north_america","regionName":"North America","stateId":"il","stateName":"Illinois","latitude":41.8781136,"longitude":-87.6297982},"locationType":"PHYSICAL","virtualLocationCountryId":null,"virtualLocationCountryName":null,"p2pAllowed":false,"streaming":false,"gatewaysCount":16,"ipsCount":256},{"locationDetails":{"cityId":"sbn","cityName":"South Bend","countryId":"us","countryName":"USA","regionId":"north_america","regionName":"North America","stateId":"in","stateName":"Indiana","latitude":41.6763545,"longitude":-86.2519898},"locationType":"PHYSICAL","virtualLocationCountryId":null,"virtualLocationCountryName":null,"p2pAllowed":false,"streaming":false,"gatewaysCount":2,"ipsCount":22},{"locationDetails":{"cityId":"ict","cityName":"Wichita","countryId":"us","countryName":"USA","regionId":"north_america","regionName":"North America","stateId":"ks","stateName":"Kansas","latitude":37.6871761,"longitude":-97.330053},"locationType":"VIRTUAL","virtualLocationCountryId":null,"virtualLocationCountryName":null,"p2pAllowed":false,"streaming":false,"gatewaysCount":3,"ipsCount":9},{"locationDetails":{"cityId":"lui","cityName":"Louisville","countryId":"us","countryName":"USA","regionId":"north_america","regionName":"North America","stateId":"ky","stateName":"Kentucky","latitude":38.2526647,"longitude":-85.7584557},"locationType":"VIRTUAL","virtualLocationCountryId":null,"virtualLocationCountryName":null,"p2pAllowed":false,"streaming":false,"gatewaysCount":4,"ipsCount":12},{"locationDetails":{"cityId":"msy","cityName":"New Orleans","countryId":"us","countryName":"USA","regionId":"north_america","regionName":"North America","stateId":"la","stateName":"Louisiana","latitude":29.9510658,"longitude":-90.0715323},"locationType":"VIRTUAL","virtualLocationCountryId":null,"virtualLocationCountryName":null,"p2pAllowed":false,"streaming":false,"gatewaysCount":4,"ipsCount":12},{"locationDetails":{"cityId":"bos","cityName":"Boston","countryId":"us","countryName":"USA","regionId":"north_america","regionName":"North America","stateId":"ma","stateName":"Massachusetts","latitude":42.3600825,"longitude":-71.0588801},"locationType":"PHYSICAL","virtualLocationCountryId":null,"virtualLocationCountryName":null,"p2pAllowed":false,"streaming":false,"gatewaysCount":10,"ipsCount":100},{"locationDetails":{"cityId":"bal","cityName":"Baltimore","countryId":"us","countryName":"USA","regionId":"north_america","regionName":"North America","stateId":"md","stateName":"Maryland","latitude":39.2903848,"longitude":-76.6121893},"locationType":"VIRTUAL","virtualLocationCountryId":null,"virtualLocationCountryName":null,"p2pAllowed":false,"streaming":false,"gatewaysCount":2,"ipsCount":6},{"locationDetails":{"cityId":"bth","cityName":"Bath","countryId":"us","countryName":"USA","regionId":"north_america","regionName":"North America","stateId":"me","stateName":"Maine","latitude":43.9106353,"longitude":-69.8206023},"locationType":"VIRTUAL","virtualLocationCountryId":null,"virtualLocationCountryName":null,"p2pAllowed":false,"streaming":false,"gatewaysCount":2,"ipsCount":6},{"locationDetails":{"cityId":"lan","cityName":"Lansing","countryId":"us","countryName":"USA","regionId":"north_america","regionName":"North America","stateId":"mi","stateName":"Michigan","latitude":42.732535,"longitude":-84.5555347},"locationType":"VIRTUAL","virtualLocationCountryId":null,"virtualLocationCountryName":null,"p2pAllowed":false,"streaming":false,"gatewaysCount":2,"ipsCount":6},{"locationDetails":{"cityId":"stp","cityName":"Saint Paul","countryId":"us","countryName":"USA","regionId":"north_america","regionName":"North America","stateId":"mn","stateName":"Minnesota","latitude":44.9537029,"longitude":-93.0899578},"locationType":"VIRTUAL","virtualLocationCountryId":null,"virtualLocationCountryName":null,"p2pAllowed":false,"streaming":false,"gatewaysCount":3,"ipsCount":9},{"locationDetails":{"cityId":"syt","cityName":"St. Louis","countryId":"us","countryName":"USA","regionId":"north_america","regionName":"North America","stateId":"mo","stateName":"Missouri","latitude":43.4083637,"longitude":-84.6066704},"locationType":"PHYSICAL","virtualLocationCountryId":null,"virtualLocationCountryName":null,"p2pAllowed":false,"streaming":false,"gatewaysCount":2,"ipsCount":22},{"locationDetails":{"cityId":"jan","cityName":"Jackson","countryId":"us","countryName":"USA","regionId":"north_america","regionName":"North America","stateId":"ms","stateName":"Mississippi","latitude":32.300844,"longitude":-90.187917},"locationType":"VIRTUAL","virtualLocationCountryId":null,"virtualLocationCountryName":null,"p2pAllowed":false,"streaming":false,"gatewaysCount":2,"ipsCount":6},{"locationDetails":{"cityId":"bil","cityName":"Billings","countryId":"us","countryName":"USA","regionId":"north_america","regionName":"North America","stateId":"mt","stateName":"Montana","latitude":45.7832856,"longitude":-108.5006904},"locationType":"VIRTUAL","virtualLocationCountryId":null,"virtualLocationCountryName":null,"p2pAllowed":false,"streaming":false,"gatewaysCount":3,"ipsCount":9},{"locationDetails":{"cityId":"aev","cityName":"Asheville","countryId":"us","countryName":"USA","regionId":"north_america","regionName":"North America","stateId":"nc","stateName":"North Carolina","latitude":35.5950581,"longitude":-82.5514869},"locationType":"PHYSICAL","virtualLocationCountryId":null,"virtualLocationCountryName":null,"p2pAllowed":false,"streaming":false,"gatewaysCount":7,"ipsCount":50},{"locationDetails":{"cityId":"gfk","cityName":"Grand Forks","countryId":"us","countryName":"USA","regionId":"north_america","regionName":"North America","stateId":"nd","stateName":"North Dakota","latitude":47.9252568,"longitude":-97.0328547},"locationType":"VIRTUAL","virtualLocationCountryId":null,"virtualLocationCountryName":null,"p2pAllowed":false,"streaming":false,"gatewaysCount":3,"ipsCount":9},{"locationDetails":{"cityId":"oma","cityName":"Omaha","countryId":"us","countryName":"USA","regionId":"north_america","regionName":"North America","stateId":"ne","stateName":"Nebraska","latitude":41.2523634,"longitude":-95.9979883},"locationType":"VIRTUAL","virtualLocationCountryId":null,"virtualLocationCountryName":null,"p2pAllowed":false,"streaming":false,"gatewaysCount":3,"ipsCount":9},{"locationDetails":{"cityId":"dfr","cityName":"Bedford","countryId":"us","countryName":"USA","regionId":"north_america","regionName":"North America","stateId":"nh","stateName":"New Hampshire","latitude":42.9463291,"longitude":-71.5132008},"locationType":"VIRTUAL","virtualLocationCountryId":null,"virtualLocationCountryName":null,"p2pAllowed":false,"streaming":false,"gatewaysCount":3,"ipsCount":9},{"locationDetails":{"cityId":"las","cityName":"Las Vegas","countryId":"us","countryName":"USA","regionId":"north_america","regionName":"North America","stateId":"nv","stateName":"Nevada","latitude":36.1699412,"longitude":-115.1398296},